facility_name,index,source_facility_type,odhf_facility_type,provider,unit,street_no,street_name,postal_code,city,province,source_format_str_address,CSDname,CSDuid,Pruid,latitude,longitude
Advanced Facial & Nasal Surgery Centre,1,other,Ambulatory health care services,Canadian Institute for Health Information,,,,T5M 4G5,edmonton,ab,,Edmonton,,48,,
Alberta Children's Hospital,10,pediatric,Hospitals,Public Health Agency of Canada,,28,Oki Dr NW,T3B 6A8,calgary,ab,28 Oki Dr NW,Calgary,4806016,48,51.074582,-114.148426
Devon General Hospital,100,general,Hospitals,Public Health Agency of Canada,,101,erie st s,T9G 1A6,devon,ab,101 erie st. s. devon ab t9g 1a6,Devon,4811018,48,53.351493,-113.730785
Kimbelee Place,1000,,Nursing and residential care facilities,Province of British Columbia,,12935,96 ave,V3V 7K6,surrey,bc,12935 96th ave surrey bc v3v 7k6,Surrey,5915004,59,49.177418,-122.864118
Kimberley Special Care Home,1001,,Nursing and residential care facilities,Province of British Columbia,,386,2 ave,V1A 2Z6,kimberley,bc,386 2 ave kimberley bc v1a 2z6,Kimberley,5901028,59,49.6899979,-115.9896466
Kinetic Energy Health and Wellness Centre,1002,,Ambulatory health care services,Province of British Columbia,,207-450,lansdowne street,V2C 1Y4,kamloops,bc,207-450 lansdowne street kamloops bc v2c 1y4,Kamloops,5933042,59,50.67706,-120.3295
King Edward House,1003,,Nursing and residential care facilities,Province of British Columbia,,820,e king edward ave,V5V 2E4,vancouver,bc,820 e king edward ave vancouver bc v5v 2e4,Vancouver,5915022,59,49.2483529,-123.0870448
Kingfisher Place,1004,,Nursing and residential care facilities,Province of British Columbia,,4328,crystal drive,V1T 8V5,vernon,bc,4328 crystal drive vernon bc v1t 8v5,Vernon,5937014,59,50.2761527,-119.2445371
Kinghaven Treatment Centre,1005,,Nursing and residential care facilities,Province of British Columbia,,31250,king rd,V2T 6C2,abbotsford,bc,31250 king rd abbotsford bc v2t 6c2,Abbotsford,5909052,59,49.0307485,-122.358792
Kings House,1006,,Nursing and residential care facilities,Province of British Columbia,,8512,164 st,V4N 1E5,surrey,bc,8512 164th st surrey bc v4n 1e5,Surrey,5915004,59,49.157599,-122.767254
Kinsmen Lodge,1007,,Nursing and residential care facilities,Province of British Columbia,,9650,137a st,V3T 4H9,surrey,bc,9650 137a st surrey bc v3t 4h9,Surrey,5915004,59,49.1777346,-122.8417995
Kinvillage,1009,,Nursing and residential care facilities,Province of British Columbia,,5410,10 ave,V4M 3X8,delta,bc,5410 10th ave delta bc v4m 3x8,Delta,5915011,59,49.0214852,-123.073648
Didsbury District Health Services,101,general,Hospitals,Public Health Agency of Canada,,1210,20 ave,T0M 0W0,didsbury,ab,1210 - 20th ave. didsbury ab t0m 0w0,Didsbury,4806032,48,51.661795,-114.123674
Kitimat Hospital & Health Centre,1012,general,Hospitals,Public Health Agency of Canada,,920,lahakas blvd s,V8C 2S3,kitimat,bc,920 lahakas blvd. s. kitimat bc v8c 2s3,Kitimat,5949005,59,54.0504835,-128.6472372
Kiwanis Care Centre,1013,,Nursing and residential care facilities,Province of British Columbia,,35,clute st,V3L 1Z5,new westminster,bc,35 clute st new westminster bc v3l 1z5,New Westminster,5915029,59,49.2232118,-122.9150878
Kiwanis Care Centre North Vancouver,1015,long term care,Nursing and residential care facilities,Canadian Institute for Health Information,,,,V7H 3A5,north vancouver,bc,,North Vancouver,,59,,
Kiwanis Village Lodge,1017,,Nursing and residential care facilities,Province of British Columbia,,1221,kiwanis cres,V9S 5Y1,nanaimo,bc,1221 kiwanis cres nanaimo bc v9s 5y1,Nanaimo,5921007,59,49.186109,-123.96893
Knutsford Group Home,1018,,Nursing and residential care facilities,Province of British Columbia,,3161,merritt princeton highway 5a,V0E 2A0,knutsford,bc,3161 merritt princeton highway 5a knutsford bc v0e 2a0,Thompson-Nicola L (Grasslands),5933060,59,50.603467,-120.3104439
Kootenay Boundary Regional Hospital,1019,general,Hospitals,Public Health Agency of Canada,,1200,hospital bench,V1R 4M1,trail,bc,1200 hospital bench trail bc v1r 4m1,Trail,5905014,59,49.103275,-117.701449
Dr. Bryan Murray Professional Corporation,102,other,Ambulatory health care services,Canadian Institute for Health Information,,,,T1J 2B9,lethbridge,ab,,Lethbridge,,48,,
Kootenay Columbia House,1021,,Nursing and residential care facilities,Province of British Columbia,,114,10 ave,V1N 1Y4,castlegar,bc,114 10 ave castlegar bc v1n 1y4,Castlegar,5903045,59,49.3279645,-117.6630835
Kootenay Lake Hospital,1022,general,Hospitals,Public Health Agency of Canada,,3,view st,V1L 2V1,nelson,bc,3 view st. nelson bc v1l 2v1,Nelson,5903015,59,49.4950249,-117.2848169
Kootenay Lake Medical Clinic,1023,,Ambulatory health care services,Province of British Columbia,,1140,lakeside drive,V1L 5Z3,nelson,bc,1140 lakeside drive nelson bc v1l 5z3,Nelson,5903015,59,49.49869,-117.2889
Kootenay Street Village,1024,,Nursing and residential care facilities,Province of British Columbia,,620,kootenay st n,V1C 3T9,cranbrook,bc,620 kootenay st n cranbrook bc v1c 3t9,Cranbrook,5901022,59,49.5183259,-115.758538
Kopernik Lodge,1025,,Nursing and residential care facilities,Province of British Columbia,,3150,rosemont dr,V5S 2C9,vancouver,bc,3150 rosemont dr vancouver bc v5s 2c9,Vancouver,5915022,59,49.21522,-123.039
Kwantlen Medical Clinic,1026,,Ambulatory health care services,Province of British Columbia,,12818,72 avenue,V3W 2M9,surrey,bc,12818 72nd avenue surrey bc v3w 2m9,Surrey,5915004,59,49.13365,-122.867417
LA ROSA DE MATSQUI,1027,,Nursing and residential care facilities,Province of British Columbia,,28711,huntingdon rd,V4X 1A8,abbotsford,bc,28711 huntingdon rd abbotsford bc v4x 1a8,Abbotsford,5909052,59,49.017373,-122.428874
Ladner 1,1028,,Nursing and residential care facilities,Province of British Columbia,,5281,westminster ave,V4K 2J4,delta,bc,5281 westminster ave delta bc v4k 2j4,Delta,5915011,59,49.099275,-123.0760699
Lady Minto Gulf Islands Hospital,1029,general,Hospitals,Public Health Agency of Canada,,135,crofton rd,V8K 1T1,salt spring island,bc,135 crofton rd. salt spring island bc v8k 1t1,Saltspring Island,5917027,59,48.8614452,-123.5085986
Dr. Cooke Extended Care Centre,103,,Nursing and residential care facilities,Saskatchewan Health Authorities,,3915,56 avenue,T9V 1N9,lloydminster,ab,"3915 – 56 avenue lloydminster, ab t9v 1n9",Lloydminster (Part),4810039,48,53.273049,-110.019164
Ladysmith Community Health Centre,1030,general,Hospitals,Public Health Agency of Canada,,1111,4 ave,V9G 1A1,ladysmith,bc,1111 4th ave. ladysmith bc v9g 1a1,Ladysmith,5919021,59,48.9957415,-123.8276344
Lake Country Family Practice,1031,,Ambulatory health care services,Province of British Columbia,,9966,pollard road,V4V 1V7,lake country,bc,9966 pollard road lake country bc v4v 1v7,Lake Country,5935016,59,50.025931,-119.405559
Lake Country Lodge,1032,,Nursing and residential care facilities,Province of British Columbia,,10163,konschuh road,V4V 2M2,lake country,bc,10163 konschuh road lake country bc v4v 2m2,Lake Country,5935016,59,50.0291435,-119.3984578
Lakes District Hospital and Health Centre,1034,general,Hospitals,Public Health Agency of Canada,,741,centre st,V0J 1E0,burns lake,bc,741 centre st. burns lake bc v0j 1e0,Burns Lake,5951022,59,54.2356268,-125.7612623
Lakes Road Home,1035,,Nursing and residential care facilities,Province of British Columbia,,6284,lakes rd,V9L 4S6,duncan,bc,6284 lakes rd duncan bc v9l 4s6,North Cowichan,5919008,59,48.798968,-123.69182
Lakeshore Medical Centre,1036,,Ambulatory health care services,Province of British Columbia,,2280,baron road,V1X 7W3,kelowna,bc,2280 baron road kelowna bc v1x 7w3,Kelowna,5935010,59,49.881024,-119.431768
Lakeside House,1037,,Nursing and residential care facilities,Province of British Columbia,,3597,gladstone st,V5N 4Y8,vancouver,bc,3597 gladstone st vancouver bc v5n 4y8,Vancouver,5915022,59,49.250461,-123.0604877
Lakeview Lodge,1038,,Nursing and residential care facilities,Province of British Columbia,,2337,butt road,V4T 3L3,west kelowna,bc,2337 butt road west kelowna bc v4t 3l3,Tsinstikeptum  9,5935802,59,49.8370173,-119.6237769
Lamton Home,1039,,Nursing and residential care facilities,Province of British Columbia,,650,middleton way,V1B 2V5,coldstream,bc,650 middleton way coldstream bc v1b 2v5,Coldstream,5937010,59,50.2318418,-119.2547159
Dr. w. r. Keir - Barrhead Continuing Care Centre,104,long term care,Nursing and residential care facilities,Canadian Institute for Health Information,,,,T7N 1L2,barrhead,ab,,Barrhead,,48,,
Lands End Home,1040,,Nursing and residential care facilities,Province of British Columbia,,1995,lands end rd,V8L 5J2,north saanich,bc,1995 lands end rd north saanich bc v8l 5j2,North Saanich,5917005,59,48.68585,-123.41694
Langley Gardens,1041,,Nursing and residential care facilities,Province of British Columbia,,8888,202 st,V1M 4A7,langley,bc,8888 202nd st langley bc v1m 4a7,Langley,5915001,59,49.1663494,-122.6609691
Langley Lodge,1042,,Nursing and residential care facilities,Province of British Columbia,,5451,204 st,V3A 5M9,langley,bc,5451 204th st langley bc v3a 5m9,Langley,5915002,59,49.1015673,-122.6573035
Langley Memorial Hospital,1043,extended care,Hospitals,Public Health Agency of Canada,,22051,fraser hwy,V3A 4H4,langley,bc,22051 fraser hwy. langley bc v3a 4h4,Langley,5915001,59,49.0952999,-122.612079
Langton Road,1045,,Nursing and residential care facilities,Province of British Columbia,,7611,langton rd,V7C 4B4,richmond,bc,7611 langton rd richmond bc v7c 4b4,Richmond,5915015,59,49.1570209,-123.1606944
Lannan Road Residence,1046,,Nursing and residential care facilities,Province of British Columbia,,2046,lannan rd,V9M 3Z6,comox,bc,2046 lannan rd comox bc v9m 3z6,Comox Valley B (Lazo North),5926022,59,49.7086633,-124.9362404
Lansdowne Treatment Centre,1047,,Ambulatory health care services,Province of British Columbia,,120-1641,hillside avenue,V8T 5G1,victoria,bc,120-1641 hillside avenue victoria bc v8t 5g1,Victoria,5917034,59,48.445104,-123.334011
Larkin House,1048,,Nursing and residential care facilities,Province of British Columbia,,2583,larkin ave,V3B 2H8,port coquitlam,bc,2583 larkin ave port coquitlam bc v3b 2h8,Port Coquitlam,5915039,59,49.277786,-122.7851203
Larkspur House,1049,,Nursing and residential care facilities,Province of British Columbia,,1310,larkspur ave,V3B 1G7,port coquitlam,bc,1310 larkspur ave port coquitlam bc v3b 1g7,Port Coquitlam,5915039,59,49.2660077,-122.7510197
Last Door Recovery Centre,1050,,Nursing and residential care facilities,Province of British Columbia,,323,8 st,V3M 3R3,new westminster,bc,323 8th st new westminster bc v3m 3r3,New Westminster,5915029,59,49.2078235,-122.9191564
Laurel Place Care Centre,1052,,Nursing and residential care facilities,Province of British Columbia,,9688,137a st,V3T 4H9,surrey,bc,9688 137a st surrey bc v3t 4h9,Surrey,5915004,59,49.1784188,-122.8417804
Leaside Place,1054,,Nursing and residential care facilities,Province of British Columbia,,1807,e 64 ave,V5P 2M9,vancouver,bc,1807 e 64th ave vancouver bc v5p 2m9,Vancouver,5915022,59,49.2121813,-123.068935
Leonard Place,1055,,Nursing and residential care facilities,Province of British Columbia,,4761,leonard pl,V2M 6Z5,prince george,bc,4761 leonard pl prince george bc v2m 6z5,Prince George,5953023,59,53.938608,-122.81031
Lillooet District Hospital and Health Centre,1056,general,Hospitals,Public Health Agency of Canada,,951,murray st,V0K 1V0,lillooet,bc,951 murray st. lillooet bc v0k 1v0,Lillooet,5931026,59,50.690014,-121.9387906
Lindsay Home,1058,,Nursing and residential care facilities,Province of British Columbia,,754,lindsay st,V8Z 3E1,victoria,bc,754 lindsay st victoria bc v8z 3e1,Saanich,5917021,59,48.4911471,-123.3952548
Lions Gate Hospital,1059,general,Hospitals,Public Health Agency of Canada,,231,east 15 st,V7L 2L7,north vancouver,bc,231 east 15th st. north vancouver bc v7l 2l7,North Vancouver,5915051,59,49.3218642,-123.0683701
Drayton Valley Hospital & Care Centre,106,general,Hospitals,Public Health Agency of Canada,,4550,madsen ave,T7A 1N8,drayton valley,ab,4550 madsen ave. drayton valley ab t7a 1n8,Drayton Valley,4811031,48,53.211841,-114.969193
Lisgar Residence,1060,,Nursing and residential care facilities,Province of British Columbia,,2471,lisgar cres,V2N 1C4,prince george,bc,2471 lisgar cres prince george bc v2n 1c4,Prince George,5953023,59,53.897987,-122.79234
"Little Mountain Manor, Inc.",1061,,Nursing and residential care facilities,Province of British Columbia,,959,little mountain rd,V9P 2C3,parksville,bc,959 little mountain rd parksville bc v9p 2c3,Nanaimo F,5921032,59,49.298621,-124.33023
Little Mountain Place,1062,,Nursing and residential care facilities,Province of British Columbia,,330,e 36 ave,V5W 3Z4,vancouver,bc,330 e 36th ave vancouver bc v5w 3z4,Vancouver,5915022,59,49.2376636,-123.0998532
Little Mountain Residential Care and Housing Society — Adanac Park Lodge,1063,long term care,Nursing and residential care facilities,Canadian Institute for Health Information,,,,V5K 4T2,vancouver,bc,,Vancouver,,59,,
Live Well Medical Centre,1065,,Ambulatory health care services,Province of British Columbia,,160-8980,no 3 road,V6Y 2E8,richmond,bc,160-8980 no. 3 road richmond bc v6y 2e8,Richmond,5915015,59,49.148846,-123.136661
Lonsdale Medical Clinics,1066,,Ambulatory health care services,Province of British Columbia,,108-1940,lonsdale avenue n,V7M 2K2,vancouver,bc,108-1940 lonsdale avenue north vancouver bc v7m 2k2,North Vancouver,5915051,59,49.327193,-123.071945
Loraine Avenue,1067,,Nursing and residential care facilities,Province of British Columbia,,3908,loraine ave,V7R 4B8,north vancouver,bc,3908 loraine ave north vancouver bc v7r 4b8,North Vancouver,5915046,59,49.3445873,-123.1065884
Louis Brier Home,1068,,Nursing and residential care facilities,Province of British Columbia,,1055,w 41 ave,V6M 1W9,vancouver,bc,1055 w 41st ave vancouver bc v6m 1w9,Vancouver,5915022,59,49.23448,-123.129
Loyal Medical Clinic,1071,,Ambulatory health care services,Province of British Columbia,,112-1055,west georgia street,V6E 3P1,vancouver,bc,112-1055 west georgia street vancouver bc v6e 3p1,Vancouver,5915022,59,49.285409,-123.12195
Lucas Home,1072,,Nursing and residential care facilities,Province of British Columbia,,909,lucas ave,V8X 4M7,victoria,bc,909 lucas ave victoria bc v8x 4m7,Saanich,5917021,59,48.477997,-123.373936
Luther Court,1073,,Nursing and residential care facilities,Province of British Columbia,,1525,cedar hill x rd,V8P 5M1,victoria,bc,1525 cedar hill x rd victoria bc v8p 5m1,Saanich,5917021,59,48.4619202,-123.3364271
Luxton Home,1074,,Nursing and residential care facilities,Province of British Columbia,,3522,luxton rd,V9C 0K6,victoria,bc,3522 luxton rd victoria bc v9c 0k6,Langford,5917044,59,48.419041,-123.5341518
Lynn Valley Care Centre,1075,,Nursing and residential care facilities,Province of British Columbia,,1070,lynn valley road,V7J 1Z8,north vancouver,bc,1070 lynn valley road north vancouver bc v7j 1z8,North Vancouver,5915046,59,49.33396,-123.045
Lynn Valley House,1076,,Nursing and residential care facilities,Province of British Columbia,,1525/1527,lynn valley road,V7J 2B1,north vancouver,bc,1525/1527 lynn valley road north vancouver bc v7j 2b1,North Vancouver,5915046,59,49.340396,-123.0310686
Lynn Valley Medical and Travel Clinic,1078,,Ambulatory health care services,Province of British Columbia,,102-1200,lynn valley road,V7J 2A2,north vancouver,bc,102-1200 lynn valley road north vancouver bc v7j 2a2,North Vancouver,5915046,59,49.33592,-123.0412
Lynndale Lodge,1079,,Nursing and residential care facilities,Province of British Columbia,,4820,10 ave sw,V1E 3B5,salmon arm,bc,4820 10 ave sw salmon arm bc v1e 3b5,Salmon Arm,5939032,59,50.6919774,-119.340954
Drumheller Health Centre,108,general,Hospitals,Public Health Agency of Canada,,351,9 st nw,T0J 0Y1,drumheller,ab,351 - 9th st. n.w. drumheller ab t0j 0y1,Drumheller,4805026,48,51.4698073,-112.7259344
m.s.a. Manor,1080,,Nursing and residential care facilities,Province of British Columbia,,2510,gladwin rd,V2T 3N9,abbotsford,bc,2510 gladwin rd abbotsford bc v2t 3n9,Abbotsford,5909052,59,49.0475442,-122.3144389
Mackenzie and District Hospital and Health Centre,1081,general,Hospitals,Public Health Agency of Canada,,45,centennial dr,V0J 2C0,mackenzie,bc,45 centennial dr. mackenzie bc v0j 2c0,Mackenzie,5953033,59,55.3375782,-123.100648
Maginnis Avenue,1082,,Nursing and residential care facilities,Province of British Columbia,,3660,maginnis avenue n,V7K 2L6,vancouver,bc,3660 maginnis avenue north vancouver bc v7k 2l6,North Vancouver,5915046,59,49.3426871,-123.034142
Magnolia Gardens,1083,,Nursing and residential care facilities,Province of British Columbia,,5840,glover rd,V3A 9K3,langley,bc,5840 glover rd langley bc v3a 9k3,Langley,5915002,59,49.1082447,-122.6494693
Magnolia House,1084,,Nursing and residential care facilities,Province of British Columbia,,720,e 17 st,V7L 2W8,north vancouver,bc,720 e 17th st north vancouver bc v7l 2w8,North Vancouver,5915051,59,49.3242484,-123.0538386
Main Street Home,1085,,Nursing and residential care facilities,Province of British Columbia,,5760,main street,V0H 1T0,oliver,bc,5760 main street oliver bc v0h 1t0,Oliver,5907014,59,49.173073,-119.5552406
Mainwaring,1086,,Nursing and residential care facilities,Province of British Columbia,,8950,mainwaring rd,V8L 1J7,north saanich,bc,8950 mainwaring rd north saanich bc v8l 1j7,North Saanich,5917005,59,48.6249709,-123.4154788
Malaspina Residence,1087,,Nursing and residential care facilities,Province of British Columbia,,2028,cedar cres,V9N 3B6,courtenay,bc,2028 cedar cres courtenay bc v9n 3b6,Courtenay,5926010,59,49.6786877,-124.9927014
Manchenda Medical Clinic,1088,,Ambulatory health care services,Province of British Columbia,,7550,king george boulevard,V3W 2T2,surrey,bc,7550 king george boulevard surrey bc v3w 2t2,Surrey,5915004,59,49.13988,-122.8432
Mango Medical Clinic,1089,,Ambulatory health care services,Province of British Columbia,,4392,beresford street,V5H 0E7,burnaby,bc,4392 beresford street burnaby bc v5h 0e7,Burnaby,5915025,59,49.226057,-123.005725
East Edmonton Health Centre,109,active acute hospital,Hospitals,Canadian Institute for Health Information,,,,T5B 0C2,edmonton,ab,,Edmonton,,48,,
Manning House,1090,,Nursing and residential care facilities,Province of British Columbia,,1560,manning ave,V3B 1K5,port coquitlam,bc,1560 manning ave port coquitlam bc v3b 1k5,Port Coquitlam,5915039,59,49.2680766,-122.7578008
Manoah Manor,1091,,Nursing and residential care facilities,Province of British Columbia,,20265,54a ave,V3A 3W6,langley city,bc,20265 54a ave langley city bc v3a 3w6,Langley,5915002,59,49.101831,-122.6608587
Manuel House,1092,,Nursing and residential care facilities,Province of British Columbia,,1709,232 st,V2Z 1K7,langley,bc,1709 232nd st langley bc v2z 1k7,Langley,5915001,59,49.032664,-122.58322
Maple Medical Clinic,1093,,Ambulatory health care services,Province of British Columbia,,103-2025,west broadway,V6J 1Z6,vancouver,bc,103-2025 west broadway vancouver bc v6j 1z6,Vancouver,5915022,59,49.263854,-123.151159
Maple Ridge House,1094,,Nursing and residential care facilities,Province of British Columbia,,12210,232a st,V2X 0R2,maple ridge,bc,12210 232a st maple ridge bc v2x 0r2,Maple Ridge,5915075,59,49.2245369,-122.5783552
Maple Ridge Seniors Village,1095,,Nursing and residential care facilities,Province of British Columbia,,22141,119 ave,V2X 2Y7,maple ridge,bc,22141 119th ave maple ridge bc v2x 2y7,Maple Ridge,5915075,59,49.2193789,-122.6084592
Maple Ridge Treatment Centre,1096,,Nursing and residential care facilities,Province of British Columbia,,22269,callaghan ave,V2X 2E2,maple ridge,bc,22269 callaghan ave maple ridge bc v2x 2e2,Maple Ridge,5915075,59,49.2137785,-122.6051618
Maple Street Residence,1097,,Nursing and residential care facilities,Province of British Columbia,,5537,maple st,V9Y 8H4,port alberni,bc,5537 maple st port alberni bc v9y 8h4,Alberni-Clayoquot E,5923037,59,49.2711362,-124.8084067
Maplewood House,1098,,Nursing and residential care facilities,Province of British Columbia,,1919,jackson st,V2S 2Z8,abbotsford,bc,1919 jackson st abbotsford bc v2s 2z8,Abbotsford,5909052,59,49.0366072,-122.3091484
Alberta Hip and Knee Clinic,11,other,Hospitals,Canadian Institute for Health Information,,,,T5E 5R8,edmonton,ab,,Edmonton,,48,,
Edmonton Chinatown Care Centre,110,long term care,Nursing and residential care facilities,Canadian Institute for Health Information,,,,T5H 0G2,edmonton,ab,,Edmonton,,48,,
Marchmont House,1101,,Nursing and residential care facilities,Province of British Columbia,,739,marchmont rd,V9L 2L9,duncan,bc,739 marchmont rd duncan bc v9l 2l9,Duncan,5919012,59,48.7770977,-123.6935153
Marchmont Place,1102,,Nursing and residential care facilities,Province of British Columbia,,6124,ryall rd,V9L 2H7,duncan,bc,6124 ryall rd duncan bc v9l 2h7,North Cowichan,5919008,59,48.793073,-123.72443
Marin Park,1103,,Nursing and residential care facilities,Province of British Columbia,,1166,marin park dr,V8M 1E8,brentwood bay,bc,1166 marin park dr brentwood bay bc v8m 1e8,Central Saanich,5917015,59,48.5714564,-123.4513407
Marine Gateway Medical Clinic,1104,,Ambulatory health care services,Province of British Columbia,,301-470,sw marine drive,V5X 0C4,vancouver,bc,301-470 sw marine drive vancouver bc v5x 0c4,Vancouver,5915022,59,49.210379,-123.11683
Mariposa,1105,,Nursing and residential care facilities,Province of British Columbia,,4133,mariposa heights,V8Z 6P5,victoria,bc,4133 mariposa heights victoria bc v8z 6p5,Saanich,5917021,59,48.478199,-123.41418
Mariposa Court,1106,,Nursing and residential care facilities,Province of British Columbia,,3419,mariposa court,V1X 2S9,kelowna,bc,3419 mariposa court kelowna bc v1x 2s9,Kelowna,5935010,59,49.8590963,-119.4391121
Mariposa Gardens,1107,,Nursing and residential care facilities,Province of British Columbia,,8816,97 st,V0H 1V5,osoyoos,bc,8816 97 st osoyoos bc v0h 1v5,Osoyoos,5907005,59,49.034727,-119.4770583
Marjorie Willoughby Snowden Memorial Hospice Home,1108,,Nursing and residential care facilities,Province of British Columbia,,72,whiteshield crescent s,V2E 2S9,kamloops,bc,72 whiteshield crescent s kamloops bc v2e 2s9,Kamloops,5933042,59,50.6588194,-120.3374527
Mary Basil House,1109,,Nursing and residential care facilities,Province of British Columbia,,2001,industrial rd,V1C 6H3,cranbrook,bc,2001 industrial rd cranbrook bc v1c 6h3,Cranbrook,5901022,59,49.5249786,-115.7686075
Edson Healthcare Centre,111,general,Hospitals,Public Health Agency of Canada,,4716,5 ave,T7E 1S8,edson,ab,4716 - 5th ave. edson ab t7e 1s8,Edson,4814024,48,53.59182,-116.407
Maryland House,1110,,Nursing and residential care facilities,Province of British Columbia,,9496,maryland dr,V8L 2R6,sidney,bc,9496 maryland dr sidney bc v8l 2r6,Sidney,5917010,59,48.6401829,-123.4063757
Masset Hospital,1111,general,Hospitals,Public Health Agency of Canada,,1760,hodges,V0T 1M0,masset,bc,1760 hodges masset bc v0t 1m0,Masset,5947023,59,54.0204495,-132.157076
Matters of Health Medical Clinic,1113,,Ambulatory health care services,Province of British Columbia,,5591,west boulevard,V6M 3W6,vancouver,bc,5591 west boulevard vancouver bc v6m 3w6,Vancouver,5915022,59,49.235586,-123.155556
Maxey Road Home,1114,,Nursing and residential care facilities,Province of British Columbia,,2278,maxey rd,V9S 5V5,nanaimo,bc,2278 maxey rd nanaimo bc v9s 5v5,Nanaimo C,5921016,59,49.185127,-124.00326
May's Place,1115,,Nursing and residential care facilities,Province of British Columbia,,333,powell st,V6A 1G5,vancouver,bc,333 powell st vancouver bc v6a 1g5,Vancouver,5915022,59,49.28324,-123.097
Mayfair (the),1116,,Nursing and residential care facilities,Province of British Columbia,,33433,marshall rd,V2S 1K8,abbotsford,bc,33433 marshall rd abbotsford bc v2s 1k8,Abbotsford,5909052,59,49.039494,-122.2976893
Mcarthur Home,1117,,Nursing and residential care facilities,Province of British Columbia,,794-796,mcarthur drive,V2B 8L9,kamloops,bc,794-796 mcarthur drive kamloops bc v2b 8l9,Kamloops,5933042,59,50.7625069,-120.3482057
Mcbride and District Hospital,1118,general,Hospitals,Public Health Agency of Canada,,594,king st,V0J 2E0,mcbride,bc,594 king st. mcbride bc v0j 2e0,McBride,5953012,59,53.3016398,-120.1608281
Mcbride Place,1119,,Nursing and residential care facilities,Province of British Columbia,,878,mcbride street,V2B 5S3,kamloops,bc,878 mcbride street kamloops bc v2b 5s3,Kamloops,5933042,59,50.7029457,-120.4107315
Elk Point Healthcare Centre,112,general,Hospitals,Public Health Agency of Canada,,5310,50 ave,T0A 1A0,elk point,ab,5310 - 50 ave. elk point ab t0a 1a0,Elk Point,4812016,48,53.8969745,-110.9058049
Mccauley Lodge,1120,,Nursing and residential care facilities,Province of British Columbia,,1037,lyall st,V9A 5G1,victoria,bc,1037 lyall st victoria bc v9a 5g1,Esquimalt,5917040,59,48.426921,-123.4064
Mcculloch Residence,1121,,Nursing and residential care facilities,Province of British Columbia,,5500,mcculloch rd,V1W 4G1,kelowna,bc,5500 mcculloch rd kelowna bc v1w 4g1,Kelowna,5935010,59,49.8396118,-119.3486466
Mckenzie Home,1122,,Nursing and residential care facilities,Province of British Columbia,,1112,mckenzie st,V8V 2W2,victoria,bc,1112 mckenzie st victoria bc v8v 2w2,Victoria,5917034,59,48.4151589,-123.3554095
Mckim Cottage,1123,psychiatric,Nursing and residential care facilities,Public Health Agency of Canada,,916,eleventh st,V1L 7A6,nelson,bc,916 eleventh st. nelson bc v1l 7a6,Nelson,5903015,59,49.508589,-117.267255
Mckinney Place,1124,long term care,Nursing and residential care facilities,Canadian Institute for Health Information,,,,V0H 1T0,oliver,bc,,Oliver,,59,,
Mcqueen House,1125,,Nursing and residential care facilities,Province of British Columbia,,2831,muir rd,V9N 6A2,courtenay,bc,2831 muir rd courtenay bc v9n 6a2,Courtenay,5926010,59,49.7107401,-124.9852203
Md Medical Centre,1126,,Ambulatory health care services,Province of British Columbia,,3020,louie drive,V4T 3E1,west kelowna,bc,3020 louie drive west kelowna bc v4t 3e1,Tsinstikeptum  9,5935802,59,49.83547,-119.6209
Meadowbrook,1127,,Nursing and residential care facilities,Province of British Columbia,,12412,meadowbrook pl,V4R 2H6,maple ridge,bc,12412 meadowbrook pl maple ridge bc v4r 2h6,Maple Ridge,5915075,59,49.2279307,-122.635215
Medi-Kel,1128,,Ambulatory health care services,Province of British Columbia,,1715,ellis street,V1Y 8M9,kelowna,bc,1715 ellis street kelowna bc v1y 8m9,Kelowna,5935010,59,49.883419,-119.493432
Medical Arts Centre,1129,,Ambulatory health care services,Province of British Columbia,,103-650,south terminal avenue,V9R 5E2,nanaimo,bc,103-650 south terminal avenue nanaimo bc v9r 5e2,Nanaimo,5921007,59,49.16431,-123.9333
Extendicare — Athabasca,113,long term care,Nursing and residential care facilities,Canadian Institute for Health Information,,,,T9S 1K4,athabasca,ab,,Athabasca,,48,,
Medusa Street Residence,1130,,Nursing and residential care facilities,Province of British Columbia,,5832,medusa street,V0N 3A3,sechelt,bc,5832 medusa street sechelt bc v0n 3a3,Sechelt,5929011,59,49.4749989,-123.7650971
Mega Fu Medical,1131,,Ambulatory health care services,Province of British Columbia,,9251,alderbridge way,V6X 0N1,richmond,bc,9251 alderbridge way richmond bc v6x 0n1,Richmond,5915015,59,49.178089,-123.119861
Melody House,1132,,Nursing and residential care facilities,Province of British Columbia,,1730,macdonald st,V6K 3X8,vancouver,bc,1730 macdonald st vancouver bc v6k 3x8,Vancouver,5915022,59,49.270557,-123.1681564
Menno Extended Care Hospital,1133,chronic care,Nursing and residential care facilities,Public Health Agency of Canada,,32945,marshall rd,V2S 1K1,abbotsford,bc,32945 marshall rd. abbotsford bc v2s 1k1,Abbotsford,5909052,59,49.0384349,-122.3117414
Menno Place - Menno Home,1134,,Nursing and residential care facilities,Province of British Columbia,,32910,brundige ave,V2S 1N2,abbotsford,bc,32910 brundige ave abbotsford bc v2s 1n2,Abbotsford,5909052,59,49.03968,-122.311293
Mentmore,1137,,Nursing and residential care facilities,Province of British Columbia,,523,mentmore st,V3J 4P5,coquitlam,bc,523 mentmore st coquitlam bc v3j 4p5,Coquitlam,5915034,59,49.2503872,-122.8702195
Mercy Canada,1138,,Nursing and residential care facilities,Province of British Columbia,,19465,16 ave,V3Z 9V2,surrey,bc,19465 16th ave surrey bc v3z 9v2,Surrey,5915004,59,49.032142,-122.684235
Mercy Medical Clinic,1139,,Ambulatory health care services,Province of British Columbia,,7155,120 street,V4E 2B1,delta,bc,7155 120th street delta bc v4e 2b1,Delta,5915011,59,49.132875,-122.892594
Extendicare — Bonnyville,114,long term care,Nursing and residential care facilities,Canadian Institute for Health Information,,,,T9N 2E8,bonnyville,ab,,Bonnyville,,48,,
Mid-Main Community Health Centre,1140,,Ambulatory health care services,Province of British Columbia,,3998,main street,V5V 3P2,vancouver,bc,3998 main street vancouver bc v5v 3p2,Vancouver,5915022,59,49.249493,-123.100611
Middleton House,1141,,Nursing and residential care facilities,Province of British Columbia,,10306,middleton dr,V1T 2K6,vernon,bc,10306 middleton dr vernon bc v1t 2k6,Coldstream,5937010,59,50.236328,-119.237596
Mile Zero Clinic,1142,,Ambulatory health care services,Province of British Columbia,,121-10200,8 street,V1G 3P8,dawson creek,bc,121-10200 8th street dawson creek bc v1g 3p8,Dawson Creek,5955014,59,55.757051,-120.222749
Milford,1143,,Nursing and residential care facilities,Province of British Columbia,,2575,milford rd,V9W 5H3,campbell river,bc,2575 milford rd campbell river bc v9w 5h3,Campbell River,5924034,59,49.9676849,-125.235307
Milford Home,1144,,Nursing and residential care facilities,Province of British Columbia,,10420,milford dr,V7A 4J7,richmond,bc,10420 milford dr richmond bc v7a 4j7,Richmond,5915015,59,49.139108,-123.1151772
Mill Lake Residence,1145,,Nursing and residential care facilities,Province of British Columbia,,33056,mill lake rd,V2S 2A3,abbotsford,bc,33056 mill lake rd abbotsford bc v2s 2a3,Abbotsford,5909052,59,49.0481178,-122.3077854
Millers Way,1147,,Nursing and residential care facilities,Province of British Columbia,,7710,15 ave,V3N 1W5,burnaby,bc,7710 15th ave burnaby bc v3n 1w5,Burnaby,5915025,59,49.220594,-122.935316
Millgrove Home,1148,,Nursing and residential care facilities,Province of British Columbia,,3028,millgrove st,V9A 1X5,victoria,bc,3028 millgrove st victoria bc v9a 1x5,Saanich,5917021,59,48.448569,-123.3931465
Mills Memorial Hospital,1149,general,Hospitals,Public Health Agency of Canada,,4720,haugland ave,V8G 2W7,terrace,bc,4720 haugland ave. terrace bc v8g 2w7,Terrace,5949011,59,54.510203,-128.596541
Extendicare — Cedars Villa,115,long term care,Nursing and residential care facilities,Canadian Institute for Health Information,,,,T3C 0E7,calgary,ab,,Calgary,,48,,
Mimi's House,1150,,Nursing and residential care facilities,Province of British Columbia,,1631,earlston ave,V8P 2Z6,victoria,bc,1631 earlston ave victoria bc v8p 2z6,Saanich,5917021,59,48.46396,-123.33049
Mina Care Home,1151,,Nursing and residential care facilities,Province of British Columbia,,1061,mina ave,V8Z 6P8,victoria,bc,1061 mina ave victoria bc v8z 6p8,Saanich,5917021,59,48.467004,-123.41149
Minoru Residence,1152,,Nursing and residential care facilities,Province of British Columbia,,7333,gollner ave,V6Y 1Y4,richmond,bc,7333 gollner ave richmond bc v6y 1y4,Richmond,5915015,59,49.16897,-123.15
Minto House,1153,long term care,Nursing and residential care facilities,Canadian Institute for Health Information,,,,V0G 1R0,nakusp,bc,,Nakusp,,59,,
Mission Creek Landing Ltd.,1154,,Nursing and residential care facilities,Province of British Columbia,,3081,hall rd,V1W 2R5,kelowna,bc,3081 hall rd kelowna bc v1w 2r5,Kelowna,5935010,59,49.8715375,-119.4282439
Mission Hills Medical Clinic,1155,,Ambulatory health care services,Province of British Columbia,,107-32471,lougheed highway,V2V 0C8,mission,bc,107-32471 lougheed highway mission bc v2v 0c8,Mission,5909056,59,49.133002,-122.32574
Mission Medical Centre,1156,,Ambulatory health care services,Province of British Columbia,,102-3320,richter street,V1W 4V5,kelowna,bc,102-3320 richter street kelowna bc v1w 4v5,Kelowna,5935010,59,49.85784,-119.4897
Mission Memorial Hospital,1157,extended care,Hospitals,Public Health Agency of Canada,,7324,hurd st,V2V 3H5,mission,bc,7324 hurd st. mission bc v2v 3h5,Mission,5909056,59,49.1351173,-122.3326872
Monashee Mews,1158,,Nursing and residential care facilities,Province of British Columbia,,2165,norris ave,V0E 2G0,lumby,bc,2165 norris ave lumby bc v0e 2g0,Lumby,5937005,59,50.2498936,-118.9617267
Montgomery House,1159,,Nursing and residential care facilities,Province of British Columbia,,227,montgomery st,V3K 5E7,coquitlam,bc,227 montgomery st coquitlam bc v3k 5e7,Coquitlam,5915034,59,49.2368532,-122.8392463
Extendicare — Eaux Claires,116,long term care,Nursing and residential care facilities,Canadian Institute for Health Information,,,,T5Z 0G7,edmonton,ab,,Edmonton,,48,,
Moog and Friends Hospice House,1160,,Nursing and residential care facilities,Province of British Columbia,,1701,government st,V2A 8J7,penticton,bc,1701 government st penticton bc v2a 8j7,Penticton,5907041,59,49.481517,-119.575713
Morgan Place,1161,,Nursing and residential care facilities,Province of British Columbia,,3288,156a st,V3Z 9T1,surrey,bc,3288 156a st surrey bc v3z 9t1,Surrey,5915004,59,49.062332,-122.790069
Moss Rock Medical Centre,1162,,Ambulatory health care services,Province of British Columbia,,1282,fairfield road,V8V 4W3,victoria,bc,1282 fairfield road victoria bc v8v 4w3,Victoria,5917034,59,48.415738,-123.349207
Mount Ida Medical Centre,1163,,Ambulatory health care services,Province of British Columbia,,200,trans canada highway sw,V1E 1V4,salmon arm,bc,200 trans canada highway sw salmon arm bc v1e 1v4,Salmon Arm,5939032,59,50.699561,-119.287604
Mount Ida Mews,1164,,Nursing and residential care facilities,Province of British Columbia,,100,5 ave se,V1E 4H4,salmon arm,bc,100 5 ave se salmon arm bc v1e 4h4,Salmon Arm,5939032,59,50.696003,-119.28418
Mount Nelson Place,1165,,Nursing and residential care facilities,Province of British Columbia,,750,6 avenue,V0A 1K0,invermere,bc,750 6th avenue invermere bc v0a 1k0,Invermere,5901039,59,50.507667,-116.0282627
Mount Seymour Medical Clinic,1167,,Ambulatory health care services,Province of British Columbia,,333,seymour boulevard,V7J 2J4,north vancouver,bc,333 seymour boulevard north vancouver bc v7j 2j4,Seymour Creek 2,5915811,59,49.311582,-123.024409
Mount Seymour Parkway House,1168,,Nursing and residential care facilities,Province of British Columbia,,3403,mt seymour pkwy,V7H 1G4,north vancouver,bc,3403 mt seymour pkwy north vancouver bc v7h 1g4,North Vancouver,5915046,59,49.3153534,-122.9773545
Extendicare — Fort Macleod,117,long term care,Nursing and residential care facilities,Canadian Institute for Health Information,,,,T0L 0Z0,fort macleod,ab,,Fort Macleod,,48,,
Mount St. Mary Hospital,1170,long term care,Nursing and residential care facilities,Canadian Institute for Health Information,,,,V8V 5A9,victoria,bc,,Victoria,,59,,
Mount Tolmie Hospital,1171,extended care,Nursing and residential care facilities,Public Health Agency of Canada,,3690,richmond rd,V8P 4R6,victoria,bc,3690 richmond rd. victoria bc v8p 4r6,Saanich,5917021,59,48.459924,-123.330454
Mountain Lake Seniors Community Ltd.,1172,,Nursing and residential care facilities,Province of British Columbia,,908,11 street,V1L 7A6,nelson,bc,908 11 street nelson bc v1l 7a6,Nelson,5903015,59,49.508215,-117.265992
Mountain View,1173,,Nursing and residential care facilities,Province of British Columbia,,470,middleton way,V1B 3Z7,vernon,bc,470 middleton way vernon bc v1b 3z7,Coldstream,5937010,59,50.2325339,-119.2424448
Mountain View Home,1174,,Nursing and residential care facilities,Province of British Columbia,,5133,boundary rd,V3G 2N4,abbotsford,bc,5133 boundary rd abbotsford bc v3g 2n4,Abbotsford,5909052,59,49.0955257,-122.0814539
Mountain View Lodge,1175,,Nursing and residential care facilities,Province of British Columbia,,951,murray street,V0K 1V0,lillooet,bc,951 murray street lillooet bc v0k 1v0,Lillooet,5931026,59,50.6892622,-121.9389613
Mountain View Lodge Complex & Long Term Care Unit,1176,,Nursing and residential care facilities,Province of British Columbia,,920,lahakas blvd,V8C 2S3,kitimat,bc,920 lahakas blvd kitimat bc v8c 2s3,Kitimat,5949005,59,54.050267,-128.65618
Mountain View Manor,1177,long term care,Nursing and residential care facilities,Canadian Institute for Health Information,,,,V4K 3V6,delta,bc,,Delta,,59,,
Mountainview Group Home,1178,,Nursing and residential care facilities,Province of British Columbia,,4195,jingle pot rd,V9T 5P7,nanaimo,bc,4195 jingle pot rd nanaimo bc v9t 5p7,Nanaimo,5921007,59,49.206446,-124.02689
Mt. Cartier Court,1179,,Nursing and residential care facilities,Province of British Columbia,,1200,newlands rd,V0E 2S0,revelstoke,bc,1200 newlands rd revelstoke bc v0e 2s0,Revelstoke,5939019,59,50.977361,-118.191795
Extendicare — Hillcrest,118,long term care,Nursing and residential care facilities,Canadian Institute for Health Information,,,,T2N 1C1,calgary,ab,,Calgary,,48,,
Mulberry Place,1180,,Nursing and residential care facilities,Province of British Columbia,,2803,39 st,V1T 6J3,vernon,bc,2803 39 st vernon bc v1t 6j3,Vernon,5937014,59,50.2628808,-119.2869228
Mundy Street Residence,1181,,Nursing and residential care facilities,Province of British Columbia,,316,mundy st,V3K 5M4,coquitlam,bc,316 mundy st coquitlam bc v3k 5m4,Coquitlam,5915034,59,49.2400763,-122.8345635
Murals Medical Clinic,1182,,Ambulatory health care services,Province of British Columbia,,100-22314,fraser highway,V3A 8M6,langley,bc,100-22314 fraser highway langley bc v3a 8m6,Langley,5915001,59,49.090915,-122.606243
Murray House (p.d.s.c.l.),1183,,Nursing and residential care facilities,Province of British Columbia,,110,murray dr,V2A 7E4,penticton,bc,110 murray dr penticton bc v2a 7e4,Penticton,5907041,59,49.4684905,-119.5904134
Murrayville Manor,1184,,Nursing and residential care facilities,Province of British Columbia,,21616,46 ave,V3A 3J4,langley,bc,21616 46th ave langley bc v3a 3j4,Langley,5915001,59,49.085552,-122.624304
Muscroft House,1185,,Nursing and residential care facilities,Province of British Columbia,,4433,francis road,V7C 1J8,richmond,bc,4433 francis road richmond bc v7c 1j8,Richmond,5915015,59,49.148604,-123.1746239
Nanaimo Regional General Hospital,1186,general,Hospitals,Public Health Agency of Canada,,1200,dufferin cres,V9S 2B7,nanaimo,bc,1200 dufferin cres. nanaimo bc v9s 2b7,Nanaimo,5921007,59,49.1849979,-123.969295
Nanaimo Seniors Village,1187,,Nursing and residential care facilities,Province of British Columbia,,6085,uplands dr,V9V 1T8,nanaimo,bc,6085 uplands dr nanaimo bc v9v 1t8,Nanaimo,5921007,59,49.236311,-124.03886
Nancy Greene Way,1188,,Nursing and residential care facilities,Province of British Columbia,,5793,nancy greene way,V7R 4W4,north vancouver,bc,5793 nancy greene way north vancouver bc v7r 4w4,North Vancouver,5915046,59,49.3687958,-123.100531
Nazirah House,1189,,Nursing and residential care facilities,Province of British Columbia,,4560,imperial st,V5J 1B6,burnaby,bc,4560 imperial st burnaby bc v5j 1b6,Burnaby,5915025,59,49.2215495,-123.0007978
Extendicare — Holyrood,119,long term care,Nursing and residential care facilities,Canadian Institute for Health Information,,,,T6C 2T1,edmonton,ab,,Edmonton,,48,,
Nechako Center - Adult,1190,,Nursing and residential care facilities,Province of British Columbia,,1308,alward st,V2M 7B1,prince george,bc,1308 alward st prince george bc v2m 7b1,Prince George,5953023,59,53.9110183,-122.7663809
Nechako Medical Clinic,1191,,Ambulatory health care services,Province of British Columbia,,143-1600,15 avenue,V2L 3X3,prince george,bc,143-1600 15th avenue prince george bc v2l 3x3,Prince George,5953023,59,53.91085,-122.7588
Nelson Avenue,1192,,Nursing and residential care facilities,Province of British Columbia,,7077,nelson ave,V5J 4B9,burnaby,bc,7077 nelson ave burnaby bc v5j 4b9,Burnaby,5915025,59,49.2192139,-122.9945662
Nelson Avenue Residence,1193,,Nursing and residential care facilities,Province of British Columbia,,620,nelson ave,V1L 2N6,nelson,bc,620 nelson ave nelson bc v1l 2n6,Nelson,5903015,59,49.5042319,-117.2789603
Nelson Jubilee Manor,1194,,Nursing and residential care facilities,Province of British Columbia,,500,beasley street w,V1L 6G9,nelson,bc,500 beasley street west nelson bc v1l 6g9,Nelson,5903015,59,49.4795674,-117.2989961
Nelson Residence,1195,,Nursing and residential care facilities,Province of British Columbia,,5534,nelson avenue,V8A 4C8,powell river,bc,5534 nelson avenue powell river bc v8a 4c8,Powell River,5927008,59,49.8660534,-124.5253194
Neville House,1196,,Nursing and residential care facilities,Province of British Columbia,,5675,neville st,V5J 2J1,burnaby,bc,5675 neville st burnaby bc v5j 2j1,Burnaby,5915025,59,49.2141609,-122.9810592
New Britton House,1197,,Nursing and residential care facilities,Province of British Columbia,,7478,britton st,V3N 3A5,burnaby,bc,7478 britton st burnaby bc v3n 3a5,Burnaby,5915025,59,49.2168933,-122.9478861
New Greenwood Lodge,1198,,Nursing and residential care facilities,Province of British Columbia,,13227,96 ave,V3V 1Y5,surrey,bc,13227 96th ave surrey bc v3v 1y5,Surrey,5915004,59,49.177352,-122.856054
New Pitt Meadows Medical Clinic,1199,,Ambulatory health care services,Province of British Columbia,,12181,harris road,V3Y 2E9,pitt meadows,bc,12181 harris road pitt meadows bc v3y 2e9,Pitt Meadows,5915070,59,49.224038,-122.690225
Alberta Hospital Edmonton,12,psychiatric,Hospitals,Public Health Agency of Canada,,17480,fort rd,T5J 2J7,edmonton,ab,17480 fort rd. edmonton ab t5j 2j7,Edmonton,4811061,48,53.636387,-113.374023
Extendicare — Leduc,120,long term care,Nursing and residential care facilities,Canadian Institute for Health Information,,,,T9E 6K6,leduc,ab,,Leduc,,48,,
New Vista Care Home i,1200,,Nursing and residential care facilities,Province of British Columbia,,7550,rosewood st,V5E 3Z3,burnaby,bc,7550 rosewood st burnaby bc v5e 3z3,Burnaby,5915025,59,49.224288,-122.945653
Newgen Medical Centre,1201,,Ambulatory health care services,Province of British Columbia,,104-6321,king george boulevard,V3X 1G1,surrey,bc,104-6321 king george boulevard surrey bc v3x 1g1,Surrey,5915004,59,49.117601,-122.845853
Newlands Residence,1202,,Nursing and residential care facilities,Province of British Columbia,,20935,51b ave,V3A 5W3,langley city,bc,20935 51b ave langley city bc v3a 5w3,Langley,5915002,59,49.0965714,-122.6436136
Newmarket Drive,1203,,Nursing and residential care facilities,Province of British Columbia,,2985,newmarket dr,V7R 2T7,north vancouver,bc,2985 newmarket dr north vancouver bc v7r 2t7,North Vancouver,5915046,59,49.3365841,-123.1026853
Newport House,1204,,Nursing and residential care facilities,Province of British Columbia,,37948,3 ave,V8B 0A7,squamish,bc,37948 3rd ave squamish bc v8b 0a7,Squamish,5931006,59,49.6982341,-123.156384
Ng Nair Place,1205,,Nursing and residential care facilities,Province of British Columbia,,23390,47 ave,V2Z 2S3,langley,bc,23390 47th ave langley bc v2z 2s3,Langley,5915001,59,49.085938,-122.575843
Nicola Lodge,1206,,Nursing and residential care facilities,Province of British Columbia,,2240,hawkins st,V3B 0M2,port coquitlam,bc,2240 hawkins st port coquitlam bc v3b 0m2,Port Coquitlam,5915039,59,49.255787,-122.737523
Nicola Valley Health Centre,1207,general,Hospitals,Public Health Agency of Canada,,3451,voght st,V1K 1C6,merritt,bc,3451 voght st. merritt bc v1k 1c6,Merritt,5933006,59,50.121172,-120.772629
Nigel House,1209,,Nursing and residential care facilities,Province of British Columbia,,846,nigel ave,V8X 4E5,victoria,bc,846 nigel ave victoria bc v8x 4e5,Saanich,5917021,59,48.4580708,-123.3729505
Extendicare — Mayerthorpe,121,long term care,Nursing and residential care facilities,Canadian Institute for Health Information,,,,T0E 1N0,mayerthorpe,ab,,Mayerthorpe,,48,,
Nikola Road Group Home,1210,,Nursing and residential care facilities,Province of British Columbia,,280,nikola rd,V9W 6H9,campbell river,bc,280 nikola rd campbell river bc v9w 6h9,Campbell River,5924034,59,50.01196,-125.28051
Ninety Fifth Avenue House,1211,,Nursing and residential care facilities,Province of British Columbia,,15293,95 ave,V3R 9C5,surrey,bc,15293 95th ave surrey bc v3r 9c5,Surrey,5915004,59,49.175215,-122.798434
Ninth Avenue Residence,1212,,Nursing and residential care facilities,Province of British Columbia,,2787,ninth ave,V9Y 2M6,port alberni,bc,2787 ninth ave port alberni bc v9y 2m6,Port Alberni,5923008,59,49.230356,-124.799
No. 5 Road Group Home,1213,,Nursing and residential care facilities,Province of British Columbia,,10731,no 5 road,V7A 4E6,richmond,bc,10731 no. 5 road richmond bc v7a 4e6,Richmond,5915015,59,49.1340512,-123.0926533
Nootka Street Residence,1214,,Nursing and residential care facilities,Province of British Columbia,,7050,nootka street,V8A 5E5,powell river,bc,7050 nootka street powell river bc v8a 5e5,Powell River,5927008,59,49.8209862,-124.5182516
Noric House,1215,,Nursing and residential care facilities,Province of British Columbia,,1400,mission rd,V1T 9C3,vernon,bc,1400 mission rd vernon bc v1t 9c3,Vernon,5937014,59,50.251193,-119.282587
Normandy House,1216,,Nursing and residential care facilities,Province of British Columbia,,575,normandy rd,V8Z 3J3,victoria,bc,575 normandy rd victoria bc v8z 3j3,Saanich,5917021,59,48.500241,-123.39167
Normanna Rest Home Ii,1217,,Nursing and residential care facilities,Province of British Columbia,,7725,4 st,V3N 5B6,burnaby,bc,7725 4th st burnaby bc v3n 5b6,Burnaby,5915025,59,49.2221124,-122.9276938
North Island Hospital Comox Valley,1219,,Hospitals,Province of British Columbia,,101,lerwick road,V9N 0B9,courtenay,bc,101 lerwick road courtenay bc v9n 0b9,Courtenay,5926010,59,49.713417,-124.970384
Extendicare — Michener Hill,122,long term care,Nursing and residential care facilities,Canadian Institute for Health Information,,,,T4P 0M1,red deer,ab,,Red Deer,,48,,
North Nanaimo Medical Clinic,1220,,Ambulatory health care services,Province of British Columbia,,6801,north island highway,V9T 6N8,nanaimo,bc,6801 north island highway nanaimo bc v9t 6n8,Nanaimo,5921007,59,49.237763,-124.051975
North Okanagan Hospice House,1221,,Nursing and residential care facilities,Province of British Columbia,,3506,27 ave,V1T 1S4,vernon,bc,3506 27 ave vernon bc v1t 1s4,Vernon,5937014,59,50.261721,-119.281794
North Okanagan Medical Clinic,1222,,Ambulatory health care services,Province of British Columbia,,5001,anderson way,V1T 9V1,vernon,bc,5001 anderson way vernon bc v1t 9v1,Vernon,5937014,59,50.28442,-119.2721
North Peace Primary Care Clinic,1223,,Ambulatory health care services,Province of British Columbia,,10011,96 street,V1J 3P3,fort st john,bc,10011 96th street fort st john bc v1j 3p3,Fort St. John,5955034,59,56.247514,-120.839694
North Shore Hospice,1224,,Nursing and residential care facilities,Province of British Columbia,,319,14 st e,V7L 2N6,north vancouver,bc,319 14th st e north vancouver bc v7l 2n6,North Vancouver,5915051,59,49.32073,-123.065
Northcrest Care Centre Ltd.,1225,,Nursing and residential care facilities,Province of British Columbia,,6771,120 st,V4E 2A7,delta,bc,6771 120th st delta bc v4e 2a7,Delta,5915011,59,49.126442,-122.8911054
Northern Haida Gwaii Hospital and Health Centre (North End),1226,,Hospitals,Province of British Columbia,,2520,harrison avenue,V0T 1M0,masset,bc,2520 harrison avenue masset bc v0t 1m0,Masset,5947023,59,54.020576,-132.157074
Northern Health Authority,1227,,Ambulatory health care services,Province of British Columbia,,1445,5 avenue,V0E 2Z0,valemount,bc,1445 5th avenue valemount bc v0e 2z0,Valemount,5953007,59,52.83176,-119.2739
Northshore Medical Clinic,1228,,Ambulatory health care services,Province of British Columbia,,101-1171,marine drive,V7P 1T1,north vancouver,bc,101-1171 marine drive north vancouver bc v7p 1t1,North Vancouver,5915046,59,49.323377,-123.106579
Norwood House,1229,,Nursing and residential care facilities,Province of British Columbia,,3636,norwood ave,V7N 3P7,north vancouver,bc,3636 norwood ave north vancouver bc v7n 3p7,North Vancouver,5915046,59,49.3429472,-123.0767595
Extendicare — St Paul,123,long term care,Nursing and residential care facilities,Canadian Institute for Health Information,,,,T0A 3A0,st paul,ab,,St. Paul,,48,,
Oak Bay Lodge,1230,,Nursing and residential care facilities,Province of British Columbia,,2251,cadboro bay rd,V8R 5H3,victoria,bc,2251 cadboro bay rd victoria bc v8r 5h3,Oak Bay,5917030,59,48.432936,-123.3138
Oak Bay Medical Clinic,1231,,Ambulatory health care services,Province of British Columbia,,101-1640,oak bay avenue,V8R 1B2,victoria,bc,101-1640 oak bay avenue victoria bc v8r 1b2,Victoria,5917034,59,48.426478,-123.334374
Oakland,1232,,Nursing and residential care facilities,Province of British Columbia,,6110,sperling ave,V5E 2T9,burnaby,bc,6110 sperling ave burnaby bc v5e 2t9,Burnaby,5915025,59,49.2283395,-122.9643356
Ocean Medical,1233,,Ambulatory health care services,Province of British Columbia,,1884,marine drive,V7V 1J6,west vancouver,bc,1884 marine drive west vancouver bc v7v 1j6,West Vancouver,5915055,59,49.328678,-123.163856
Oceanside Place,1234,,Nursing and residential care facilities,Province of British Columbia,,6039,brickyard rd,V9V 1M6,nanaimo,bc,6039 brickyard rd nanaimo bc v9v 1m6,Nanaimo,5921007,59,49.2356879,-124.0264813
Old Orchard Medical Clinic,1235,,Ambulatory health care services,Province of British Columbia,,924005,kingsway,V5H 2A1,burnaby,bc,11-4429 kingsway burnaby bc v5h 2a1,Burnaby,5915025,59,49.231407,-123.005129
One Hundred & Forty Three a Street Home,1236,,Nursing and residential care facilities,Province of British Columbia,,8689,143a st,V3W 0K4,surrey,bc,8689 143a st surrey bc v3w 0k4,Surrey,5915004,59,49.160448,-122.8245
One Hundred and Fifty Eight a Street,1237,,Nursing and residential care facilities,Province of British Columbia,,10607,158a st,V4N 3J2,surrey,bc,10607 158a st surrey bc v4n 3j2,Surrey,5915004,59,49.1953556,-122.7829494
One Hundred and Fifty Four Street Group Home,1238,,Nursing and residential care facilities,Province of British Columbia,,1660,154 st,V4A 4R9,surrey,bc,1660 154th st surrey bc v4a 4r9,Surrey,5915004,59,49.032257,-122.795417
One Hundred and Thirty First Street Home,1239,,Nursing and residential care facilities,Province of British Columbia,,9643,131 st,V3T 3P4,surrey,bc,9643 131st st surrey bc v3t 3p4,Surrey,5915004,59,49.178018,-122.859968
Extendicare — Viking,124,long term care,Nursing and residential care facilities,Canadian Institute for Health Information,,,,T0B 4N0,viking,ab,,Viking,,48,,
Onsite Detox and Transitional Housing,1240,,Nursing and residential care facilities,Province of British Columbia,,137,e hastings st,V6A 1N5,vancouver,bc,137 e hastings st vancouver bc v6a 1n5,Vancouver,5915022,59,49.2816658,-123.1012105
Onyx House,1241,,Nursing and residential care facilities,Province of British Columbia,,1725,pearl st,V8R 2Z4,victoria,bc,1725 pearl st victoria bc v8r 2z4,Victoria,5917034,59,48.441832,-123.33275
Orchard Haven,1242,,Nursing and residential care facilities,Province of British Columbia,,700,3 st,V0X 1N0,keremeos,bc,700 3 st keremeos bc v0x 1n0,Keremeos,5907009,59,49.204679,-119.833278
Orchard Heights,1243,,Nursing and residential care facilities,Province of British Columbia,,5538,chaffey ave,V5H 2S2,burnaby,bc,5538 chaffey ave burnaby bc v5h 2s2,Burnaby,5915025,59,49.2343627,-123.0070684
Orchard Manor at Hawthorn Park,1244,,Nursing and residential care facilities,Province of British Columbia,,3221,casorso rd,V1Y 3J5,kelowna,bc,3221 casorso rd kelowna bc v1y 3j5,Kelowna,5935010,59,49.8602539,-119.4853353
Orchard Medical Centre,1245,,Ambulatory health care services,Province of British Columbia,,104-1990,cooper road,V1Y 8K5,kelowna,bc,104-1990 cooper road kelowna bc v1y 8k5,Kelowna,5935010,59,49.877565,-119.443356
Orchard Recovery Center,1246,,Nursing and residential care facilities,Province of British Columbia,,811,grafton rd,V0N 1G2,bowen island,bc,811 grafton rd bowen island bc v0n 1g2,Bowen Island,5915062,59,49.372131,-123.361
Orchard View Group Home,1247,,Nursing and residential care facilities,Province of British Columbia,,3231,30 st ne,V1E 3L1,salmon arm,bc,3231 30 st ne salmon arm bc v1e 3l1,Salmon Arm,5939032,59,50.723292,-119.250892
Orcrest Group Home,1248,,Nursing and residential care facilities,Province of British Columbia,,860,orcrest dr,V2B 6T2,kamloops,bc,860 orcrest dr kamloops bc v2b 6t2,Kamloops,5933042,59,50.7750076,-120.3438216
Ord Road Group Home,1249,,Nursing and residential care facilities,Province of British Columbia,,3510,ord road,V2B 8B6,kamloops,bc,3510 ord road kamloops bc v2b 8b6,Kamloops,5933042,59,50.715316,-120.46172
Extendicare — Vulcan,125,long term care,Nursing and residential care facilities,Canadian Institute for Health Information,,,,T0L 2B0,vulcan,ab,,Vulcan,,48,,
Origin at Longwood (Astoria Suites),1250,,Nursing and residential care facilities,Province of British Columbia,,6205,oliver rd,V9T 6T1,nanaimo,bc,6205 oliver rd nanaimo bc v9t 6t1,Nanaimo,5921007,59,49.22078,-124.03124
Orillia House,1251,,Nursing and residential care facilities,Province of British Columbia,,2965,orillia st,V9A 1Y6,victoria,bc,2965 orillia st victoria bc v9a 1y6,Saanich,5917021,59,48.4482137,-123.3959333
Oriole House,1252,,Nursing and residential care facilities,Province of British Columbia,,1080,holt st,V2B 5H2,kamloops,bc,1080 holt st kamloops bc v2b 5h2,Kamloops,5933042,59,50.7091406,-120.3889523
Oriole Lodge,1253,,Nursing and residential care facilities,Province of British Columbia,,32539,oriole cres,V2T 4C7,abbotsford,bc,32539 oriole cres abbotsford bc v2t 4c7,Abbotsford,5909052,59,49.0572496,-122.3230039
Orion House,1254,,Nursing and residential care facilities,Province of British Columbia,,20395,42 ave,V3A 3A6,langley,bc,20395 42nd ave langley bc v3a 3a6,Langley,5915001,59,49.0785912,-122.6586376
Ospika Residence,1255,,Nursing and residential care facilities,Province of British Columbia,,2690,ospika blvd s,V2N 2L8,prince george,bc,2690 ospika blvd s prince george bc v2n 2l8,Prince George,5953023,59,53.893633,-122.78843
Osprey Home,1256,,Nursing and residential care facilities,Province of British Columbia,,30772,osprey dr,V2T 5J4,abbotsford,bc,30772 osprey dr abbotsford bc v2t 5j4,Abbotsford,5909052,59,49.057665,-122.3712483
Our House,1257,,Nursing and residential care facilities,Province of British Columbia,,2620,hoskins road,V7J 3A3,north vancouver,bc,2620 hoskins road north vancouver bc v7j 3a3,North Vancouver,5915046,59,49.3323066,-123.0257809
Our Place,1258,,Nursing and residential care facilities,Province of British Columbia,,287,e 33 ave,V5V 2Z7,vancouver,bc,287 e 33rd ave vancouver bc v5v 2z7,Vancouver,5915022,59,49.2407212,-123.0993326
Overlander Extended Care Hospital,1259,long term care,Nursing and residential care facilities,Canadian Institute for Health Information,,,,V2B 7Z9,kamloops,bc,,Kamloops,,59,,
Eye q Premium Laser,126,other,Ambulatory health care services,Canadian Institute for Health Information,,,,T5N 1R8,edmonton,ab,,Edmonton,,48,,
Oyster Harbour Seniors Community,1260,,Nursing and residential care facilities,Province of British Columbia,,1127,fourth ave,V9G 1A6,ladysmith,bc,1127 fourth ave ladysmith bc v9g 1a6,Ladysmith,5919021,59,48.9966463,-123.8287358
Ozanam House,1261,,Nursing and residential care facilities,Province of British Columbia,,2629,richter st,V1Y 2R3,kelowna,bc,2629 richter st kelowna bc v1y 2r3,Kelowna,5935010,59,49.8667968,-119.4877827
Pacific Medical Clinic,1262,,Ambulatory health care services,Province of British Columbia,,6176,fraser street,V5W 3A1,vancouver,bc,6176 fraser street vancouver bc v5w 3a1,Vancouver,5915022,59,49.2286,-123.090632
Pacifica House,1263,,Nursing and residential care facilities,Province of British Columbia,,46110,collins dr,V2R 2G2,chilliwack,bc,46110 collins dr chilliwack bc v2r 2g2,Chilliwack,5909020,59,49.1262975,-121.9500919
Pacifica Treatment Centre,1264,,Nursing and residential care facilities,Province of British Columbia,,1755,e 11 ave,V5N 1Y9,vancouver,bc,1755 e 11th ave vancouver bc v5n 1y9,Vancouver,5915022,59,49.2607112,-123.0684104
Paddock Home,1265,,Nursing and residential care facilities,Province of British Columbia,,124,paddock pl,V9B 5G1,victoria,bc,124 paddock pl victoria bc v9b 5g1,View Royal,5917047,59,48.4613659,-123.4394017
Padwick House,1266,,Nursing and residential care facilities,Province of British Columbia,,1924,jones avenue n,V7M 2W5,vancouver,bc,1924 jones avenue north vancouver bc v7m 2w5,North Vancouver,5915051,59,49.3267725,-123.0811369
Paisley House,1267,,Nursing and residential care facilities,Province of British Columbia,,3091,paisley rd,V7R 1C7,north vancouver,bc,3091 paisley rd north vancouver bc v7r 1c7,West Vancouver,5915055,59,49.336714,-123.198295
Panama House,1268,,Nursing and residential care facilities,Province of British Columbia,,4148,carey rd,V8Z 4G8,victoria,bc,4148 carey rd victoria bc v8z 4g8,Saanich,5917021,59,48.477019,-123.39917
Panorama Village Medical Clinic,1269,,Ambulatory health care services,Province of British Columbia,,15157,56 avenue,V3S 9A5,surrey,bc,15157 56th avenue surrey bc v3s 9a5,Surrey,5915004,59,49.10554,-122.8027
Fairview Health Complex,127,general,Hospitals,Public Health Agency of Canada,,10628,110 st,T0H 1L0,fairview,ab,10628 - 110 st. fairview ab t0h 1l0,Fairview,4819068,48,56.0709656,-118.3845521
Park and Tilford Medical Treatment Centre,1270,,Ambulatory health care services,Province of British Columbia,,333,brooksbank avenue n,V7J 3S8,vancouver,bc,333 brooksbank avenue north vancouver bc v7j 3s8,North Vancouver,5915051,59,49.308678,-123.04047
Park Drive Home,1271,,Nursing and residential care facilities,Province of British Columbia,,6499,park drive,V0H 1T4,oliver,bc,6499 park drive oliver bc v0h 1t4,Oliver,5907014,59,49.1872754,-119.5418863
Park Place Seniors Living Inc. — Fort Langley Seniors Village,1276,long term care,Nursing and residential care facilities,Canadian Institute for Health Information,,,,V1M 2R4,fort langley,bc,,,,59,,
Park Place Seniors Living Inc. — Glenwood Seniors Community,1277,long term care,Nursing and residential care facilities,Canadian Institute for Health Information,,,,V0M 1A2,agassiz,bc,,,,59,,
Father Lacombe Care Society — Father Lacombe Care Centre,128,long term care,Nursing and residential care facilities,Canadian Institute for Health Information,,,,T2X 2A3,calgary,ab,,Calgary,,48,,
Parker Place Medical Clinic,1286,,Ambulatory health care services,Province of British Columbia,,4380,no 3 road,V6X 3V7,richmond,bc,4380 no. 3 road richmond bc v6x 3v7,Richmond,5915015,59,49.18167,-123.1347
Parklandview,1287,,Nursing and residential care facilities,Province of British Columbia,,8833,158 st,V4N 2Y7,surrey,bc,8833 158th st surrey bc v4n 2y7,Surrey,5915004,59,49.1635267,-122.7846172
Parkside House,1288,,Nursing and residential care facilities,Province of British Columbia,,1740,feltham rd,V8N 2A3,victoria,bc,1740 feltham rd victoria bc v8n 2a3,Saanich,5917021,59,48.4762964,-123.3286197
Parkside Intermediate Care Home,1289,,Nursing and residential care facilities,Province of British Columbia,,788,ospika blvd,V2M 6W5,prince george,bc,788 ospika blvd prince george bc v2m 6w5,Prince George,5953023,59,53.917385,-122.7952
Father Lacombe Care Society — Providence Care Centre,129,long term care,Nursing and residential care facilities,Canadian Institute for Health Information,,,,T2X 0X2,calgary,ab,,Calgary,,48,,
Parktree House,1290,,Nursing and residential care facilities,Province of British Columbia,,12229,parktree cres,V3X 1Z9,surrey,bc,12229 parktree cres surrey bc v3x 1z9,Surrey,5915004,59,49.1161555,-122.8849992
Parkview Place,1291,,Nursing and residential care facilities,Province of British Columbia,,707,3 avenue,V0E 1V0,enderby,bc,707 3 avenue enderby bc v0e 1v0,Enderby,5937033,59,50.5466217,-119.1407493
Parkway Medical Clinic,1293,,Ambulatory health care services,Province of British Columbia,,835,langford parkway,V9B 4V5,victoria,bc,835 langford parkway victoria bc v9b 4v5,Langford,5917044,59,48.441396,-123.504347
Parkwood Court,1294,,Nursing and residential care facilities,Province of British Columbia,,3000,shelbourne st,V8R 4M8,victoria,bc,3000 shelbourne st victoria bc v8r 4m8,Victoria,5917034,59,48.4441795,-123.3338227
Paskin Home,1295,,Nursing and residential care facilities,Province of British Columbia,,761,paskin way,V8Z 6N4,victoria,bc,761 paskin way victoria bc v8z 6n4,Saanich,5917021,59,48.4935158,-123.3925704
Path to Freedom Treatment Centre Ltd.,1296,,Nursing and residential care facilities,Province of British Columbia,,19030,56 ave,V3S 4N7,surrey,bc,19030 56th ave surrey bc v3s 4n7,Surrey,5915004,59,49.1042087,-122.6955133
Patterson Home,1297,,Nursing and residential care facilities,Province of British Columbia,,7882,patterson rd,V8M 1L5,saanichton,bc,7882 patterson rd saanichton bc v8m 1l5,Central Saanich,5917015,59,48.5967597,-123.4153745
Peace Arch Hospital,1299,extended care,Hospitals,Public Health Agency of Canada,,15521,russell ave,V4B 2R4,white rock,bc,15521 russell ave. white rock bc v4b 2r4,White Rock,5915007,59,49.029968,-122.792231
Alberta Surgical Centre,13,other,Ambulatory health care services,Canadian Institute for Health Information,,,,T5M 3Z7,edmonton,ab,,Edmonton,,48,,
Foothills Medical Centre,130,general,Hospitals,Public Health Agency of Canada,,1403,29 st nw,T2N 2T9,calgary,ab,1403 - 29th st. n.w. calgary ab t2n 2t9,Calgary,4806016,48,51.0642833,-114.1339478
Peace Portal Seniors Village,1302,,Nursing and residential care facilities,Province of British Columbia,,15441,16 ave,V4A 8T8,surrey,bc,15441 16th ave surrey bc v4a 8t8,Surrey,5915004,59,49.031282,-122.7945296
Peace Villa,1303,,Nursing and residential care facilities,Province of British Columbia,,8407,112 ave,V1J 0J5,fort st john,bc,8407 112 ave fort st. john bc v1j 0j5,Fort St. John,5955034,59,56.256732,-120.81792
Peach City Medical and Urgent Care Clinic,1304,,Ambulatory health care services,Province of British Columbia,,166-2111,main street,V2A 6W6,penticton,bc,166-2111 main street penticton bc v2a 6w6,Penticton,5907041,59,49.472813,-119.583878
Peardonville House Treatment Centre,1305,,Nursing and residential care facilities,Province of British Columbia,,825,peardonville rd,V4X 2K3,abbotsford,bc,825 peardonville rd abbotsford bc v4x 2k3,Abbotsford,5909052,59,49.0177352,-122.4065114
Pearl House,1306,,Nursing and residential care facilities,Province of British Columbia,,1727,pearl st,V8X 5L3,victoria,bc,1727 pearl st victoria bc v8x 5l3,Victoria,5917034,59,48.4417088,-123.3327607
Pemberton Marine Medical Clinic,1307,,Ambulatory health care services,Province of British Columbia,,1224,marine drive,V7P 1T2,north vancouver,bc,1224 marine drive north vancouver bc v7p 1t2,North Vancouver,5915046,59,49.32489,-123.1098
Pender House,1308,,Nursing and residential care facilities,Province of British Columbia,,2596,e pender st,V5K 2B5,vancouver,bc,2596 e pender st vancouver bc v5k 2b5,Vancouver,5915022,59,49.279942,-123.052
Pendleton House,1309,,Nursing and residential care facilities,Province of British Columbia,,9580,pendleton road,V7E 4N1,richmond,bc,9580 pendleton road richmond bc v7e 4n1,Richmond,5915015,59,49.1448543,-123.1772907
Fort Macleod Health Centre,131,general,Hospitals,Public Health Agency of Canada,,744,26 st s,T0L 0Z0,fort macleod,ab,"744 - 26th st., s. fort macleod ab t0l 0z0",Fort Macleod,4803019,48,49.726332,-113.3932472
Peninsula Medical Clinic,1310,,Ambulatory health care services,Province of British Columbia,,15388,24 avenue,V4A 2J2,surrey,bc,15388 24th avenue surrey bc v4a 2j2,Surrey,5915004,59,49.045582,-122.796387
Penticton Regional Hospital,1311,general,Hospitals,Public Health Agency of Canada,,550,carmi ave,V2A 3G6,penticton,bc,550 carmi ave. penticton bc v2a 3g6,Penticton,5907041,59,49.4812182,-119.577927
Peruzzo House - v.i.t.a.l.s.,1312,,Nursing and residential care facilities,Province of British Columbia,,d-156,government st,V9L 1A2,duncan,bc,d-156 government st duncan bc v9l 1a2,Duncan,5919012,59,48.777064,-123.70945
Peters Road House,1313,,Nursing and residential care facilities,Province of British Columbia,,1904,peters road,V7J 1Y9,north vancouver,bc,1904 peters road north vancouver bc v7j 1y9,North Vancouver,5915046,59,49.341873,-123.0222214
Phoenix Center Quibble Creek,1314,,Nursing and residential care facilities,Province of British Columbia,,13670,94a ave,V3V 1N1,surrey,bc,13670 94a ave surrey bc v3v 1n1,Surrey,5915004,59,49.1745124,-122.8437601
Phoenix Centre,1315,,Nursing and residential care facilities,Province of British Columbia,,922,3 ave,V2C 6W5,kamloops,bc,922 3 ave kamloops bc v2c 6w5,Kamloops,5933042,59,50.6693527,-120.3363635
Piccadilly Care Center,1316,,Nursing and residential care facilities,Province of British Columbia,,821,10 ave sw,V1E 1T2,salmon arm,bc,821 10 ave sw salmon arm bc v1e 1t2,Salmon Arm,5939032,59,50.6929509,-119.2955552
Piercy Respite Hotel,1317,,Nursing and residential care facilities,Province of British Columbia,,1454,hillside ave,V8T 2B7,victoria,bc,1454 hillside ave victoria bc v8t 2b7,Victoria,5917034,59,48.4425235,-123.342568
Pine Acres Home,1318,,Nursing and residential care facilities,Province of British Columbia,,1902,pheasant ln,V4T 2H4,westbank,bc,1902 pheasant ln westbank bc v4t 2h4,Tsinstikeptum  9,5935802,59,49.839286,-119.59551
Pine Grove Lodge,1319,,Nursing and residential care facilities,Province of British Columbia,,313,mcgowan avenue,V2B 2N8,kamloops,bc,313 mcgowan avenue kamloops bc v2b 2n8,Kamloops,5933042,59,50.6874166,-120.3509428
Fort Mcmurray Community Cancer Centre,132,,Hospitals,Province of Alberta,,7,hospital street,T9H 1P2,fort mcmurray,ab,"7 hospital street fort mcmurray, alberta t9h 1p2",Wood Buffalo,4816037,48,56.7176831,-111.3618006
Pinegrove Place,1320,,Nursing and residential care facilities,Province of British Columbia,,11331,mellis drive,V6X 1L8,richmond,bc,11331 mellis drive richmond bc v6x 1l8,Richmond,5915015,59,49.1867925,-123.0984471
Pinetree Lodge,1321,,Nursing and residential care facilities,Province of British Columbia,,1370,el camino dr,V3E 2W6,coquitlam,bc,1370 el camino dr coquitlam bc v3e 2w6,Coquitlam,5915034,59,49.2953317,-122.7795583
Pioneer House,1322,,Nursing and residential care facilities,Province of British Columbia,,220,sherbrooke st,V3L 3M2,new westminster,bc,220 sherbrooke st new westminster bc v3l 3m2,New Westminster,5915029,59,49.2273382,-122.8881385
Plateau Medical Clinic,1323,,Ambulatory health care services,Province of British Columbia,,1410,parkway boulevard,V3E 3J7,coquitlam,bc,1410 parkway boulevard coquitlam bc v3e 3j7,Coquitlam,5915034,59,49.297014,-122.803349
Pleasant Valley Health Centre,1324,active acute hospital,Hospitals,Canadian Institute for Health Information,,3800,Pattern Dr,V0E 1B2,armstrong,bc,,Armstrong,,59,,
Pleasant Valley Manor,1325,long term care,Nursing and residential care facilities,Canadian Institute for Health Information,,,,V0E 1B2,armstrong,bc,,Armstrong,,59,,
Pleasant View (Pleasant View Housing Society),1326,,Nursing and residential care facilities,Province of British Columbia,,7530,hurd st,V2V 3H9,mission,bc,7530 hurd st mission bc v2v 3h9,Mission,5909056,59,49.13839,-122.331857
Plymouth Group Home,1327,,Nursing and residential care facilities,Province of British Columbia,,972,plymouth dr,V7H 2J1,north vancouver,bc,972 plymouth dr north vancouver bc v7h 2j1,North Vancouver,5915046,59,49.3147181,-122.9920303
Point Grey Medical Clinic,1328,,Ambulatory health care services,Province of British Columbia,,4448,west 10 avenue,V6R 2H9,vancouver,bc,4448 west 10th avenue vancouver bc v6r 2h9,Vancouver,5915022,59,49.26383,-123.207511
Polson,1329,long term care,Nursing and residential care facilities,Canadian Institute for Health Information,,,,V1T 5L2,vernon,bc,,Vernon,,59,,
Fort Saskatchewan Community Hospital,133,,Hospitals,Province of Alberta,,9401,86 avenue,T8L 0C6,fort saskatchewan,ab,"9401 – 86 avenue, fort saskatchewan, alberta, t8l 0c6",Fort Saskatchewan,4811056,48,53.693159,-113.213229
Ponderosa Lodge,1330,,Nursing and residential care facilities,Province of British Columbia,,425,columbia st,V2C 2T4,kamloops,bc,425 columbia st kamloops bc v2c 2t4,Kamloops,5933042,59,50.670828,-120.331933
Poplar Ridge Pavilion,1331,long term care,Nursing and residential care facilities,Canadian Institute for Health Information,,,,V1R 4M1,trail,bc,,Trail,,59,,
Port Alice Health Centre,1332,general,Hospitals,Public Health Agency of Canada,,1090,marine dr,V0N 2N0,port alice,bc,1090 marine dr. port alice bc v0n 2n0,Port Alice,5943017,59,50.4260087,-127.4878351
Port Hardy Hospital,1333,general,Hospitals,Public Health Agency of Canada,,9120,granville st,V0N 2P0,port hardy,bc,9120 granville st. port hardy bc v0n 2p0,Port Hardy,5943023,59,50.7200118,-127.502909
Port Mcneill and District Hospital,1334,general,Hospitals,Public Health Agency of Canada,,2750,kingcome place,V0N 2R0,port mcneill,bc,2750 kingcome place port mcneill bc v0n 2r0,Port McNeill,5943012,59,50.5806462,-127.0678577
Porter Lane,1336,,Nursing and residential care facilities,Province of British Columbia,,1107,como lake ave,V3J 3N9,coquitlam,bc,1107 como lake ave coquitlam bc v3j 3n9,Coquitlam,5915034,59,49.263972,-122.861325
Portsmouth Road Home,1337,,Nursing and residential care facilities,Province of British Columbia,,6510,portsmouth rd,V9V 1A3,nanaimo,bc,6510 portsmouth rd nanaimo bc v9v 1a3,Nanaimo,5921007,59,49.24003,-124.04648
Powell River General Hospital,1338,general,Hospitals,Public Health Agency of Canada,,5000,joyce ave,V8A 5R3,powell river,bc,5000 joyce ave. powell river bc v8a 5r3,Powell River,5927008,59,49.8508263,-124.518391
Fort Saskatchewan Health Centre,134,general,Hospitals,Public Health Agency of Canada,,9430,95 st,T8L 1R8,fort saskatchewan,ab,9430 - 95th st. fort saskatchewan ab t8l 1r8,Fort Saskatchewan,4811056,48,53.7033208,-113.2225242
Prairie Valley Lodge,1340,,Nursing and residential care facilities,Province of British Columbia,,10312,prairie valley rd,V0H 1Z0,summerland,bc,10312 prairie valley rd summerland bc v0h 1z0,Summerland,5907035,59,49.597847,-119.68345
Prema Place,1341,,Nursing and residential care facilities,Province of British Columbia,,3273,mary anne cres,V9C 3M3,victoria,bc,3273 mary anne cres victoria bc v9c 3m3,Colwood,5917041,59,48.424911,-123.50122
Primecare Medical Centre,1342,,Ambulatory health care services,Province of British Columbia,,201-7315,edmonds street,V3N 1A7,burnaby,bc,201-7315 edmonds street burnaby bc v3n 1a7,Burnaby,5915025,59,49.218846,-122.951615
Primrose Centre for Community Living,1343,,Nursing and residential care facilities,Province of British Columbia,,4807,georgia st,V4K 2T1,delta,bc,4807 georgia st delta bc v4k 2t1,Delta,5915011,59,49.0904225,-123.088506
Prince Avenue Home,1344,,Nursing and residential care facilities,Province of British Columbia,,101,prince ave,V1N 1C7,castlegar,bc,101 prince ave castlegar bc v1n 1c7,Castlegar,5903045,59,49.3290404,-117.6732208
Prince George Regional Hospital,1345,general,Hospitals,Public Health Agency of Canada,,1475,edmonton st,V2M 1S2,prince george,bc,1475 edmonton st. prince george bc v2m 1s2,Prince George,5953023,59,53.9113826,-122.7644758
Prince Rupert Regional Hospital,1346,general,Hospitals,Public Health Agency of Canada,,1305,summit ave,V8J 2A6,prince rupert,bc,1305 summit ave. prince rupert bc v8j 2a6,Prince Rupert,5947012,59,54.3044463,-130.331503
Princeton General Hospital,1347,general,Hospitals,Public Health Agency of Canada,,98,ridgewood,V0X 1W0,princeton,bc,98 ridgewood princeton bc v0x 1w0,Princeton,5907024,59,49.4540952,-120.526738
Priory (Hiscock & Heritage Woods),1348,long term care,Nursing and residential care facilities,Canadian Institute for Health Information,,,,V9B 2W4,victoria,bc,,Victoria,,59,,
St. Paul's Hospital,1349,general,Hospitals,Public Health Agency of Canada,,1081,burrard st,V6Z 1Y6,vancouver,bc,1081 burrard st. vancouver bc v6z 1y6,Vancouver,5915022,59,49.280516,-123.1281872
Foundation Oral Surgery,135,other,Ambulatory health care services,Canadian Institute for Health Information,,,,T2R 0H6,calgary,ab,,Calgary,,48,,
Providence Health Care - Holy Family Hospital,1350,rehabilitation,Hospitals,Public Health Agency of Canada,,7801,argyle st,V5P 3L6,vancouver,bc,7801 argyle st. vancouver bc v5p 3l6,Vancouver,5915022,59,49.212701,-123.07308
Providence Health Care - Mount Saint Joseph Hospital,1351,general,Hospitals,Public Health Agency of Canada,,3080,prince edward st,V5T 3N4,vancouver,bc,3080 prince edward st. vancouver bc v5t 3n4,Vancouver,5915022,59,49.258002,-123.095299
Providence Health Care — St Vincent’s: Langara,1353,long term care,Nursing and residential care facilities,Canadian Institute for Health Information,,,,V5X 4V4,vancouver,bc,,Vancouver,,59,,
Purcell Place,1355,,Nursing and residential care facilities,Province of British Columbia,,1906,kelowna cres,V1C 6E5,cranbrook,bc,1906 kelowna cres cranbrook bc v1c 6e5,Cranbrook,5901022,59,49.527675,-115.7416049
Pure Care Clinic,1357,,Ambulatory health care services,Province of British Columbia,,105-22470,dewdney trunk road,V2X 5Z6,maple ridge,bc,105-22470 dewdney trunk road maple ridge bc v2x 5z6,Maple Ridge,5915075,59,49.219791,-122.600013
Qe Park Medical Clinic,1358,,Ambulatory health care services,Province of British Columbia,,4060,cambie street,V5Z 2X8,vancouver,bc,4060 cambie street vancouver bc v5z 2x8,Vancouver,5915022,59,49.249473,-123.115216
Quadling House a,1359,,Nursing and residential care facilities,Province of British Columbia,,820,quadling ave,V3K 2A4,coquitlam,bc,820 quadling ave coquitlam bc v3k 2a4,Coquitlam,5915034,59,49.2408467,-122.8750597
Fox Creek Health Care Centre,136,general,Hospitals,Public Health Agency of Canada,,600,third st,T0H 1P0,fox creek,ab,600 third st. fox creek ab t0h 1p0,Fox Creek,4818002,48,54.4046429,-116.801403
Quadra Village Medical Clinic,1360,,Ambulatory health care services,Province of British Columbia,,2631,quadra street,V8T 4E4,victoria,bc,2631 quadra street victoria bc v8t 4e4,Victoria,5917034,59,48.438086,-123.358897
Qualicum Manor,1361,,Nursing and residential care facilities,Province of British Columbia,,124,fourth ave e,V9K 1N6,qualicum beach,bc,124 fourth ave e qualicum beach bc v9k 1n6,Qualicum Beach,5921023,59,49.3449157,-124.4405245
Quarterway Place,1362,,Nursing and residential care facilities,Province of British Columbia,,2573,labieux rd,V9T 3M8,nanaimo,bc,2573 labieux rd nanaimo bc v9t 3m8,Nanaimo,5921007,59,49.1990931,-124.0121423
Queen Alexandra Centre for Children's Health,1363,rehabilitation,Hospitals,Public Health Agency of Canada,,2400,arbutus rd,V8N 1V7,victoria,bc,2400 arbutus rd. victoria bc v8n 1v7,Saanich,5917021,59,48.47151,-123.29954
Queen Charlotte Islands General Hospital,1364,general,Hospitals,Public Health Agency of Canada,,3209,third ave,V0T 1M0,queen charlotte,bc,3209 third ave. queen charlotte bc v0t 1m0,Queen Charlotte,5947026,59,53.254641,-132.072632
Queen Victoria Hospital and Health Centre,1366,general,Hospitals,Public Health Agency of Canada,,1200,newlands rd,V0E 2S0,revelstoke,bc,1200 newlands rd. revelstoke bc v0e 2s0,Revelstoke,5939019,59,50.9768022,-118.1901401
Queen’s Park & Fellburn Care Centres — Fellburn Care Centre,1368,"active acute hospital, long term care",Hospitals,Canadian Institute for Health Information,,6050,east hastings street,V5B 1R6,burnaby,bc,,Burnaby,,59,,
Queen’s Park & Fellburn Care Centres — Queen’s Park Care Centre,1369,"active acute hospital, long term care",Hospitals,Canadian Institute for Health Information,,,,V3L 5E8,new westminster,bc,,New Westminster,,59,,
Galahad Care Centre,137,long term care,Nursing and residential care facilities,Canadian Institute for Health Information,,,,T0B 1R0,galahad,ab,,,,48,,
Quince Street Residence,1370,,Nursing and residential care facilities,Province of British Columbia,,2012,quince st,V2L 5B4,prince george,bc,2012 quince st prince george bc v2l 5b4,Prince George,5953023,59,53.905294,-122.75337
Quinsam Medical Group,1371,,Ambulatory health care services,Province of British Columbia,,801,hilchey road,V9W 0A2,campbell river,bc,801 hilchey road campbell river bc v9w 0a2,Campbell River,5924034,59,49.973673,-125.245769
r.w. Large Memorial Hospital,1372,general,Hospitals,Public Health Agency of Canada,,88,waglisla st,V0T 1Z0,waglisla,bc,88 waglisla st. waglisla bc v0t 1z0,Bella Bella 1,5945801,59,52.1612727,-128.143339
Racing Residence,1373,,Nursing and residential care facilities,Province of British Columbia,,464,racing rd,V2J 5G9,quesnel,bc,464 racing rd quesnel bc v2j 5g9,Quesnel,5941013,59,52.9849646,-122.4493146
Radcliffe Residence,1374,,Nursing and residential care facilities,Province of British Columbia,,501,radcliffe dr,V2M 3N5,prince george,bc,501 radcliffe dr prince george bc v2m 3n5,Prince George,5953023,59,53.9284291,-122.7936192
Rai Medical Clinic,1375,,Ambulatory health care services,Province of British Columbia,,101-6905,120 street,V4E 2A8,delta,bc,101-6905 120th street delta bc v4e 2a8,Delta,5915011,59,49.128771,-122.89095
Rainbow Lodge,1376,,Nursing and residential care facilities,Province of British Columbia,,7510,6 st,V3N 3M1,burnaby,bc,7510 6th st burnaby bc v3n 3m1,Burnaby,5915025,59,49.2238303,-122.9332908
Rainbow Manor,1377,,Nursing and residential care facilities,Province of British Columbia,,10118,159a st,V4N 2P9,surrey,bc,10118 159a st surrey bc v4n 2p9,Surrey,5915004,59,49.1856298,-122.838137
Rainbow Ridge Special Care Home,1378,,Nursing and residential care facilities,Province of British Columbia,,10666,277 st,V2W 1M7,maple ridge,bc,10666 277th st maple ridge bc v2w 1m7,Maple Ridge,5915075,59,49.1956597,-122.4531146
Randall House,1379,,Nursing and residential care facilities,Province of British Columbia,,6610,gilley ave,V5C 5T5,burnaby,bc,6610 gilley ave burnaby bc v5c 5t5,Burnaby,5915025,59,49.2239136,-122.9716122
Raven House,1380,,Nursing and residential care facilities,Province of British Columbia,,841,levis st,V3J 6A2,coquitlam,bc,841 levis st coquitlam bc v3j 6a2,Coquitlam,5915034,59,49.2653533,-122.8474036
Redfern Home,1381,,Nursing and residential care facilities,Province of British Columbia,,937,redfern st,V8S 4E7,victoria,bc,937 redfern st victoria bc v8s 4e7,Victoria,5917034,59,48.4223205,-123.3238702
Redonda Crescent Residence,1382,,Nursing and residential care facilities,Province of British Columbia,,4728,redonda avenue,V8A 5C9,powell river,bc,4728 redonda avenue powell river bc v8a 5c9,Powell River,5927008,59,49.844051,-124.513203
Renaissance Place,1383,,Nursing and residential care facilities,Province of British Columbia,,32849,12 ave,V2V 2M5,mission,bc,32849 12th ave mission bc v2v 2m5,Mission,5909056,59,49.1444793,-122.3151715
Renfrew Care Centre,1384,,Nursing and residential care facilities,Province of British Columbia,,1880,renfrew st,V5M 3H9,vancouver,bc,1880 renfrew st vancouver bc v5m 3h9,Vancouver,5915022,59,49.26786,-123.044
Renfrew House,1385,,Nursing and residential care facilities,Province of British Columbia,,3402,worthington dr,V5M 3X8,vancouver,bc,3402 worthington dr vancouver bc v5m 3x8,Vancouver,5915022,59,49.254322,-123.0301071
Residence at Morgan Heights,1386,,Nursing and residential care facilities,Province of British Columbia,,15955,27 ave,V3S 3W3,surrey,bc,15955 27th ave surrey bc v3s 3w3,Surrey,5915004,59,49.051717,-122.779794
Rest Haven Lodge,1389,,Nursing and residential care facilities,Province of British Columbia,,2281,mills rd,V8L 2C3,sidney,bc,2281 mills rd sidney bc v8l 2c3,Sidney,5917010,59,48.654974,-123.40484
Gimbel Eye Centre - Calgary,139,other,Ambulatory health care services,Canadian Institute for Health Information,,,,T3A 2N1,calgary,ab,,Calgary,,48,,
Retirement Concepts,1390,long term care,Nursing and residential care facilities,Canadian Institute for Health Information,,,,V6E 3V7,vancouver,bc,,Vancouver,,59,,
Retirement Concepts — Dufferin Care Centre,1393,long term care,Nursing and residential care facilities,Canadian Institute for Health Information,,,,V3B 7X5,coquitlam,bc,,Coquitlam,,59,,
Allen Gray Continuing Care Centre,14,long term care,Nursing and residential care facilities,Canadian Institute for Health Information,,,,T6L 7G1,edmonton,ab,,Edmonton,,48,,
Gimbel Eye Surgical Centre - Edmonton,140,other,Ambulatory health care services,Canadian Institute for Health Information,,,,T5G 0E5,edmonton,ab,,Edmonton,,48,,
Retirement Concepts — Rosemary Heights Seniors Village,1400,long term care,Nursing and residential care facilities,Canadian Institute for Health Information,,,,V3S 2J9,surrey,bc,,Surrey,,59,,
Revera Inc. — Arbutus Care Centre,1406,long term care,Nursing and residential care facilities,Canadian Institute for Health Information,,,,V6L 2L1,vancouver,bc,,Vancouver,,59,,
Revera Inc. — Glenwarren Lodge,1408,long term care,Nursing and residential care facilities,Canadian Institute for Health Information,,,,V8T 1B3,victoria,bc,,Victoria,,59,,
Revera Inc. — Holyrood Manor,1409,long term care,Nursing and residential care facilities,Canadian Institute for Health Information,,,,V2X 3E6,maple ridge,bc,,Maple Ridge,,59,,
Glenrose Rehabilitation Hospital,141,rehabilitation,Hospitals,Public Health Agency of Canada,,10230,111 ave,T5G 0B7,edmonton,ab,10230 - 111th ave. edmonton ab t5g 0b7,Edmonton,4811061,48,53.5601013,-113.4976534
Revera Inc. — Lakeview Care Centre,1411,long term care,Nursing and residential care facilities,Canadian Institute for Health Information,,,,V5N 5W4,vancouver,bc,,Vancouver,,59,,
Richfield Group Home,1413,,Nursing and residential care facilities,Province of British Columbia,,10591,bissett dr,V7A 4K8,richmond,bc,10591 bissett dr richmond bc v7a 4k8,Richmond,5915015,59,49.1477141,-123.107216
Richmond Central Medical Clinic,1414,,Ambulatory health care services,Province of British Columbia,,150-7997,westminster highway,V6X 1A4,richmond,bc,150-7997 westminster highway richmond bc v6x 1a4,Richmond,5915015,59,49.170249,-123.136592
Richmond Hospital,1415,general,Hospitals,Public Health Agency of Canada,,7000,westminster hwy,V6X 1A2,richmond,bc,7000 westminster hwy. richmond bc v6x 1a2,Richmond,5915015,59,49.1689707,-123.146577
Richmond House,1417,,Nursing and residential care facilities,Province of British Columbia,,8691,no 2 rd,V7C 3M4,richmond,bc,8691 no. 2 rd richmond bc v7c 3m4,Richmond,5915015,59,49.1492749,-123.1593858
Richmond in-Store Medical Clinic,1418,,Ambulatory health care services,Province of British Columbia,,4651,no 3 road,V6X 2C4,richmond,bc,4651 no. 3 road richmond bc v6x 2c4,Richmond,5915015,59,49.179216,-123.138509
Richmond Lions Manor,1419,long term care,Nursing and residential care facilities,Canadian Institute for Health Information,,,,V7E 3M4,richmond,bc,,Richmond,,59,,
Grande Cache Community Health Complex,142,general,Hospitals,Public Health Agency of Canada,,10200,shand ave,T0E 0Y0,grande cache,ab,10200 shand ave. grande cache ab t0e 0y0,Grande Cache,4818005,48,53.8915173,-119.1192184
Richmond Lions Manor - Bridgeport,1420,,Nursing and residential care facilities,Province of British Columbia,,9020,bridgeport rd,V6X 1S1,richmond,bc,9020 bridgeport rd richmond bc v6x 1s1,Richmond,5915015,59,49.1915171,-123.1251463
Ridge Meadows Care Clinic,1421,,Ambulatory health care services,Province of British Columbia,,203-19800,lougheed highway,V3Y 2W1,pitt meadows,bc,203-19800 lougheed highway pitt meadows bc v3y 2w1,Pitt Meadows,5915070,59,49.22004,-122.6718
Ridge Meadows Hospital,1422,general,Hospitals,Public Health Agency of Canada,,11666,laity st,V2X 5A3,maple ridge,bc,11666 laity st. maple ridge bc v2x 5a3,Maple Ridge,5915075,59,49.2161889,-122.63008
Ridgeview Lodge,1424,,Nursing and residential care facilities,Province of British Columbia,,920,desmond street,V2B 5K6,kamloops,bc,920 desmond street kamloops bc v2b 5k6,Kamloops,5933042,59,50.7034312,-120.3931349
Ridgewood Lodge,1425,,Nursing and residential care facilities,Province of British Columbia,,98,ridgewood dr,V0X 1W0,princeton,bc,98 ridgewood dr princeton bc v0x 1w0,Princeton,5907024,59,49.45385,-120.527633
Rittich Road,1426,,Nursing and residential care facilities,Province of British Columbia,,5120,rittich rd,V1X 7V6,kelowna,bc,5120 rittich rd kelowna bc v1x 7v6,Central Okanagan,5935012,59,49.9566759,-119.3620705
River City Medical Clinic,1427,,Ambulatory health care services,Province of British Columbia,,1424,island highway,V9W 2E3,campbell river,bc,1424 island highway campbell river bc v9w 2e3,Campbell River 11,5924804,59,50.036017,-125.248484
River House,1428,,Nursing and residential care facilities,Province of British Columbia,,611,enzo rd,V2B 0E6,kamloops,bc,611 enzo rd kamloops bc v2b 0e6,Kamloops,5933042,59,50.752861,-120.347488
River Road Residence,1429,,Nursing and residential care facilities,Province of British Columbia,,20972,river rd,V2X 1Z9,maple ridge,bc,20972 river rd maple ridge bc v2x 1z9,Maple Ridge,5915075,59,49.2117379,-122.6403965
Grande Prairie Cancer Centre,143,,Hospitals,Province of Alberta,,10409,98 Street,T8V 2E8,grande prairie,ab,"10409-98 street, grande prairie, alberta, t8v 2e8",Grande Prairie,4819012,48,55.175391,-118.788449
Riverview Hospital,1430,psychiatric,Hospitals,Public Health Agency of Canada,,2601,lougheed hwy,V3C 4J2,coquitlam,bc,2601 lougheed hwy. coquitlam bc v3c 4j2,Coquitlam,5915034,59,49.2508389,-122.806171
Roalshary,1431,,Nursing and residential care facilities,Province of British Columbia,,558,73 ave,V0H 1H0,grand forks,bc,558 73 ave grand forks bc v0h 1h0,Grand Forks,5905032,59,49.031426,-118.441395
Robinson Group Home,1432,,Nursing and residential care facilities,Province of British Columbia,,8400,robinson rd,V6Y 1B5,richmond,bc,8400 robinson rd richmond bc v6y 1b5,Richmond,5915015,59,49.1490998,-123.1303718
Robson Medical Centre,1433,,Ambulatory health care services,Province of British Columbia,,238,robson street,V6B 6A1,vancouver,bc,238 robson street vancouver bc v6b 6a1,Vancouver,5915022,59,49.278437,-123.115388
Rocky Mountain Care Village,1434,,Nursing and residential care facilities,Province of British Columbia,,55,cokato rd,V0B 1M0,fernie,bc,55 cokato rd fernie bc v0b 1m0,Fernie,5901012,59,49.4923849,-115.0666592
Rosecliffe Residence,1435,,Nursing and residential care facilities,Province of British Columbia,,5527,shorncliffe ave,V0N 3A7,sechelt,bc,5527 shorncliffe ave sechelt bc v0n 3a7,Sechelt,5929011,59,49.4728988,-123.7649643
Rosedale Medical Associates,1436,,Ambulatory health care services,Province of British Columbia,,200-13009,rosedale avenue,V0H 1Z0,summerland,bc,200-13009 rosedale avenue summerland bc v0h 1z0,Summerland,5907035,59,49.601216,-119.677714
Rosemary Heights Seniors Village,1437,,Nursing and residential care facilities,Province of British Columbia,,15240,34 ave,V3Z 2J9,surrey,bc,15240 34th ave surrey bc v3z 2j9,Surrey,5915004,59,49.0635552,-122.8006006
Rosemont House,1438,,Nursing and residential care facilities,Province of British Columbia,,529,west houston street,V1L 6C9,nelson,bc,529 west houston street nelson bc v1l 6c9,Nelson,5903015,59,49.480804,-117.299592
Rosewood,1439,,Nursing and residential care facilities,Province of British Columbia,,7916,rosewood st,V5E 2H3,burnaby,bc,7916 rosewood st burnaby bc v5e 2h3,Burnaby,5915025,59,49.2279271,-122.9379603
Grey Nuns Community Hospital,144,general,Hospitals,Public Health Agency of Canada,,1100,youville dr w,T6L 5X8,edmonton,ab,1100 youville dr. w. edmonton ab t6l 5x8,Edmonton,4811061,48,53.4615831,-113.4297243
Rosewood Manor,1440,,Nursing and residential care facilities,Province of British Columbia,,6260,blundell rd,V7C 5C4,richmond,bc,6260 blundell rd richmond bc v7c 5c4,Richmond,5915015,59,49.1551041,-123.1553156
Roslin House,1441,,Nursing and residential care facilities,Province of British Columbia,,1733,highland dr n,V1Y 4K9,kelowna,bc,1733 highland dr n kelowna bc v1y 4k9,Kelowna,5935010,59,49.8922928,-119.4585279
Ross Road Home,1442,,Nursing and residential care facilities,Province of British Columbia,,1680,ross rd,V7J 1V4,north vancouver,bc,1680 ross rd north vancouver bc v7j 1v4,North Vancouver,5915046,59,49.3362883,-123.0277681
Rotary Hospice House,1443,,Nursing and residential care facilities,Province of British Columbia,,3089,clapperton st,V2L 5N4,prince george,bc,3089 clapperton st prince george bc v2l 5n4,Prince George,5953023,59,53.889563,-122.75596
Rotary Manor,1444,,Nursing and residential care facilities,Province of British Columbia,,1121,90 ave,V1G 5A3,dawson creek,bc,1121 90 ave dawson creek bc v1g 5a3,Dawson Creek,5955014,59,55.773403,-120.23466
Rote Scheune Acres,1445,,Nursing and residential care facilities,Province of British Columbia,,2222,saucier rd,V1W 4B8,kelowna,bc,2222 saucier rd kelowna bc v1w 4b8,Kelowna,5935010,59,49.8231878,-119.4395524
Royal Arch Masonic Home,1446,,Nursing and residential care facilities,Province of British Columbia,,7850,champlain cres,V5S 4C7,vancouver,bc,7850 champlain cres vancouver bc v5s 4c7,Vancouver,5915022,59,49.2135328,-123.0288043
Royal Ascot Care Centre,1447,long term care,Nursing and residential care facilities,Canadian Institute for Health Information,,,,V5M 1Y1,vancouver,bc,,Vancouver,,59,,
Royal City Manor,1448,,Nursing and residential care facilities,Province of British Columbia,,77,jamieson ct,V3L 5P8,new westminster,bc,77 jamieson ct new westminster bc v3l 5p8,New Westminster,5915029,59,49.2153153,-122.8951618
Royal Columbia Medical Clinic,1449,,Ambulatory health care services,Province of British Columbia,,107-301,east columbia street,V3L 3W5,new westminster,bc,107-301 east columbia street new westminster bc v3l 3w5,New Westminster,5915029,59,49.225627,-122.892883
Royal Columbian Hospital,1450,general,Hospitals,Public Health Agency of Canada,,330,east columbia st,V3L 3W7,new westminster,bc,330 east columbia st. new westminster bc v3l 3w7,New Westminster,5915029,59,49.2264136,-122.8916374
Royal Inland Hospital,1451,general,Hospitals,Public Health Agency of Canada,,311,columbia st,V2C 2T1,kamloops,bc,311 columbia st. kamloops bc v2c 2t1,Kamloops,5933042,59,50.6701949,-120.3345924
Royal Jubilee Hospital,1452,general,Hospitals,Public Health Agency of Canada,,1952,bay st,V8R 1J8,victoria,bc,1952 bay st. victoria bc v8r 1j8,Victoria,5917034,59,48.432719,-123.3279135
Royal Oak House,1453,,Nursing and residential care facilities,Province of British Columbia,,780,royal oak ave,V8X 3T1,victoria,bc,780 royal oak ave victoria bc v8x 3t1,Saanich,5917021,59,48.4937596,-123.3852606
Ruby Willows Health Care Ltd,1454,,Nursing and residential care facilities,Province of British Columbia,,6721,238 st,V2Y 2H5,langley,bc,6721 238th st langley bc v2y 2h5,Langley,5915001,59,49.124274,-122.565628
Ryall Road Residence,1455,,Nursing and residential care facilities,Province of British Columbia,,6124,ryall rd,V9L 2H7,duncan,bc,6124 ryall rd duncan bc v9l 2h7,North Cowichan,5919008,59,48.793073,-123.72443
Ryz's Supportive Living Services,1456,,Nursing and residential care facilities,Province of British Columbia,,404,100 ave,V1G 1V7,dawson creek,bc,404 100 ave dawson creek bc v1g 1v7,Dawson Creek,5955014,59,55.7616196,-120.2179821
s.u.c.c.e.s.s. Simon k.y. Lee Seniors Care Home,1457,,Nursing and residential care facilities,Province of British Columbia,,555,carrall st,V6B 2J8,vancouver,bc,555 carrall st vancouver bc v6b 2j8,Vancouver,5915022,59,49.27979,-123.105
Saanich House,1458,,Nursing and residential care facilities,Province of British Columbia,,5416,saanich avenue,V8A 4G9,powell river,bc,5416 saanich avenue powell river bc v8a 4g9,Powell River,5927008,59,49.862878,-124.52162
Saanich Peninsula Hospital,1459,general,Hospitals,Public Health Agency of Canada,,2166,mount newton x rd,V8M 2B2,saanichton,bc,2166 mount newton x rd. saanichton bc v8m 2b2,Central Saanich,5917015,59,48.5944724,-123.4105953
Grimshaw / Berwyn and District Community Health Centre,146,general,Hospitals,Public Health Agency of Canada,,5621,wilcox rd,T0H 1W0,grimshaw,ab,5621 wilcox rd. grimshaw ab t0h 1w0,Grimshaw,4819074,48,56.190388,-117.62725
Saanich Plaza Medical Clinic,1460,,Ambulatory health care services,Province of British Columbia,,3544,blanshard street,V8X 1W3,victoria,bc,3544 blanshard street victoria bc v8x 1w3,Saanich,5917021,59,48.456348,-123.374168
Safa Medical Clinic,1461,,Ambulatory health care services,Province of British Columbia,,2574352,202 street,V1M 4A7,langley,bc,5-8948 202nd street langley bc v1m 4a7,Langley,5915001,59,49.165841,-122.662404
Sage Health Centre,1462,,Nursing and residential care facilities,Province of British Columbia,,101,columbia st w,V2C 2S7,kamloops,bc,101 columbia st w kamloops bc v2c 2s7,Kamloops,5933042,59,50.6712832,-120.3418283
Saik'Uz First Nation,1463,,Ambulatory health care services,Province of British Columbia,,716,patrick street,V0J 3A1,vanderhoof,bc,716 patrick street vanderhoof bc v0j 3a1,Stony Creek 1,5951809,59,53.941923,-124.102601
Sakura House,1464,,Nursing and residential care facilities,Province of British Columbia,,566,schoolhouse st,V3J 5P3,coquitlam,bc,566 schoolhouse st coquitlam bc v3j 5p3,Coquitlam,5915034,59,49.253089,-122.852693
Salmon Arm Medical Clinic,1465,,Ambulatory health care services,Province of British Columbia,,581,hudson avenue ne,V1E 4N8,salmon arm,bc,581 hudson avenue ne salmon arm bc v1e 4n8,Salmon Arm,5939032,59,50.703316,-119.278208
Salvation Army Harbour Light Centre,1466,,Nursing and residential care facilities,Province of British Columbia,,119,e cordova st,V6A 1K8,vancouver,bc,119 e cordova st vancouver bc v6a 1k8,Vancouver,5915022,59,49.282434,-123.101
Salveo Medical Clinic,1467,,Ambulatory health care services,Province of British Columbia,,2155,ferry avenue,V2N 5E8,prince george,bc,2155 ferry avenue prince george bc v2n 5e8,Prince George,5953023,59,53.887457,-122.769326
San Miguel,1468,,Nursing and residential care facilities,Province of British Columbia,,1860,san miguel rd,V8N 6G8,victoria,bc,1860 san miguel rd victoria bc v8n 6g8,Saanich,5917021,59,48.4799073,-123.3166363
Sandalwood Adult Intensive Care Facility,1469,,Nursing and residential care facilities,Province of British Columbia,,2965,westsyde rd,V2B 7E7,kamloops,bc,2965 westsyde rd kamloops bc v2b 7e7,Kamloops,5933042,59,50.758396,-120.348604
Groat Oral and Maxillofacial Surgery,147,other,Ambulatory health care services,Canadian Institute for Health Information,,,,T5M 3J9,edmonton,ab,,Edmonton,,48,,
Sandspit Medical Clinic,1470,,Ambulatory health care services,Province of British Columbia,,403,copper bay road,V0T 1T0,sandspit,bc,403 copper bay road sandspit bc v0t 1t0,Skeena-Queen Charlotte E,5947032,59,53.243312,-131.817065
Sardis House,1471,,Nursing and residential care facilities,Province of British Columbia,,4521,sardis st,V5H 1K8,burnaby,bc,4521 sardis st burnaby bc v5h 1k8,Burnaby,5915025,59,49.2339431,-123.0029902
Sardis New Chaffey,1472,,Nursing and residential care facilities,Province of British Columbia,,4751,sardis st,V5H 1L4,burnaby,bc,4751 sardis st burnaby bc v5h 1l4,Burnaby,5915025,59,49.2336902,-122.9968143
Scotia Place,1473,,Nursing and residential care facilities,Province of British Columbia,,4314,scotia place,V8A 2X2,powell river,bc,4314 scotia place powell river bc v8a 2x2,Powell River,5927008,59,49.8326712,-124.5216544
Scott Home,1474,,Nursing and residential care facilities,Province of British Columbia,,4830,scott ave,V8G 2B6,terrace,bc,4830 scott ave terrace bc v8g 2b6,Terrace,5949011,59,54.523671,-128.60342
Sea to Sky Walk in Clinic,1475,,Ambulatory health care services,Province of British Columbia,,103-40147,glenalder place,V8B 0G2,squamish,bc,103-40147 glenalder place squamish bc v8b 0g2,Squamish,5931006,59,49.73649,-123.1339
Seamount Home,1476,,Nursing and residential care facilities,Province of British Columbia,,2056,seamount pl,V8M 1M7,victoria,bc,2056 seamount pl victoria bc v8m 1m7,Central Saanich,5917015,59,48.5782057,-123.4142669
Selkirk Family Care Home,1478,,Nursing and residential care facilities,Province of British Columbia,,1120,selkirk ave,V2B 1V6,kamloops,bc,1120 selkirk ave kamloops bc v2b 1v6,Kamloops,5933042,59,50.7035685,-120.3710195
Selkirk Place,1479,long term care,Nursing and residential care facilities,Canadian Institute for Health Information,,,,V8T 5K7,victoria,bc,,Victoria,,59,,
Groot Dermasurgery Centre,148,other,Ambulatory health care services,Canadian Institute for Health Information,,,,T5N 4B2,edmonton,ab,,Edmonton,,48,,
Selkirk Seniors Village,1480,,Nursing and residential care facilities,Province of British Columbia,,385,waterfront cres,V8T 0A7,victoria,bc,385 waterfront cres victoria bc v8t 0a7,Victoria,5917034,59,48.441914,-123.37798
Selkirk Waterfront,1481,,Nursing and residential care facilities,Province of British Columbia,,390,waterfront cres,V8T 5K3,victoria,bc,390 waterfront cres victoria bc v8t 5k3,Victoria,5917034,59,48.441484,-123.37761
Sentinel House,1482,,Nursing and residential care facilities,Province of British Columbia,,8598,sentinel pl,V8L 4Z7,north saanich,bc,8598 sentinel pl north saanich bc v8l 4z7,North Saanich,5917005,59,48.6157359,-123.4302095
Serenity House,1483,,Nursing and residential care facilities,Province of British Columbia,,1311,106 ave,V1G 2P2,dawson creek,bc,1311 106 ave dawson creek bc v1g 2p2,Dawson Creek,5955014,59,55.756212,-120.23914
Seventh Avenue Residence,1484,,Nursing and residential care facilities,Province of British Columbia,,32886,7 ave,V2V 2C4,mission,bc,32886 7th ave mission bc v2v 2c4,Mission,5909056,59,49.1399655,-122.3137395
Seymour Health Centre,1485,,Ambulatory health care services,Province of British Columbia,,1530,west 7 avenue,V6J 1S3,vancouver,bc,1530 west 7th avenue vancouver bc v6j 1s3,Vancouver,5915022,59,49.26514,-123.1405
Sharondale Lodge,1486,,Nursing and residential care facilities,Province of British Columbia,,17826,57 ave,V3S 1H3,surrey,bc,17826 57th ave surrey bc v3s 1h3,Surrey,5915004,59,49.1062445,-122.7308893
Shaughnessy Care Centre,1487,,Nursing and residential care facilities,Province of British Columbia,,2250,wilson ave,V3C 1Z5,port coquitlam,bc,2250 wilson ave port coquitlam bc v3c 1z5,Port Coquitlam,5915039,59,49.2606033,-122.7799085
Shaw House,1488,,Nursing and residential care facilities,Province of British Columbia,,560,shaw ave,V3K 2R1,coquitlam,bc,560 shaw ave coquitlam bc v3k 2r1,Coquitlam,5915034,59,49.2437599,-122.8877652
Shaw Place,1489,,Nursing and residential care facilities,Province of British Columbia,,488,e 41 ave,V5W 1P2,vancouver,bc,488 e 41st ave vancouver bc v5w 1p2,Vancouver,5915022,59,49.2326234,-123.0949923
Hall Dental Centre,149,other,Ambulatory health care services,Canadian Institute for Health Information,,,,T1H 0M4,lethbridge,ab,,Lethbridge,,48,,
Shelbourne Medical Clinic,1490,,Ambulatory health care services,Province of British Columbia,,150-3200,shelbourne street,V8P 5G8,victoria,bc,150-3200 shelbourne street victoria bc v8p 5g8,Saanich,5917021,59,48.448582,-123.333229
Shelmarie Rest Home,1491,,Nursing and residential care facilities,Province of British Columbia,,630,foul bay rd,V8S 4H3,victoria,bc,630 foul bay rd victoria bc v8s 4h3,Victoria,5917034,59,48.4190982,-123.3248349
Shiloah,1492,,Nursing and residential care facilities,Province of British Columbia,,7401,sussex ave,V5J 3V6,burnaby,bc,7401 sussex ave burnaby bc v5j 3v6,Burnaby,5915025,59,49.2168451,-123.0055897
Shone House,1493,,Nursing and residential care facilities,Province of British Columbia,,4060,shone rd,V7G 2N4,north vancouver,bc,4060 shone rd north vancouver bc v7g 2n4,North Vancouver,5915046,59,49.3187921,-122.9593032
Shoreline Medical,1494,,Ambulatory health care services,Province of British Columbia,,2a-2379,bevan avenue,V8L 4M9,sidney,bc,2a-2379 bevan avenue sidney bc v8l 4m9,Sidney,5917010,59,48.647652,-123.401503
