index,facility_name,odhf_facility_type,street_no,street_name,postal_code,city,province,latitude,longitude
2042,centre d'oncologie dr-léon-richard,Ambulatory health care services,37,rue providence,E1C8X3,moncton,nb,46.0969071,-64.7868313
2044,centre hospitalier universitaire dr-georges-l.-dumont,Hospitals,330,ave université,E1C2Z3,moncton,nb,46.0980252,-64.7862138
2051,dr. georges-l. dumont regional hospital,Hospitals,330,avenue université,E1C2Z3,moncton,nb,46.097972999999996,-64.78703399999999
2053,dr. georges-l.-dumont university hospital centre / centre hospitalier universitaire dr-georges-l.-dumont,Hospitals,330,université avenue,E1C2Z3,moncton,nb,46.097885,-64.787161
2091,the moncton hospital,Hospitals,135,macbeath ave,E1C6Z8,moncton,nb,46.104977000000005,-64.80615
2092,the moncton hospital / lhôpital de moncton,Hospitals,135,macbeath avenue,E1C6Z8,moncton,nb,46.105744,-64.805127
4949,residence lefebvre,Nursing and residential care facilities,15,rue paquette,P0L1V0,moonbeam,on,46.104989,-64.78447129999999
