index,facility_name,odhf_facility_type,street_no,street_name,postal_code,city,province,latitude,longitude
6428,centre de réadaptation en déficience intellectuelle et ted (îles -de-la-madeleine),Nursing and residential care facilities,695,chemin des caps,G4T2S9,,qc,47.404439,-61.897743000000006
6465,centre de réadaptation en déficience physique des îles -de-la-madeleine,Nursing and residential care facilities,695,chemin des caps,G4T2S9,,qc,47.404439,-61.897743000000006
6597,centre de santé et de services sociaux des îles,Hospitals,430,chemin principal,G4T1R9,les Îles-de-la-madeleine,qc,47.376211,-61.868025
6934,cisss des îles,Ambulatory health care services,430,chemin principal les îles-de-la-madeleine,G4T1R9,québec,qc,47.3763,-61.867823
7123,clinique médicale du dr parent (pour jeunes et enfants),Ambulatory health care services,539,chemin principal les îles-de-la-madeleine,G4T1E7,québec,qc,47.3743,-61.8746
7207,clsc cap-aux-meules,Ambulatory health care services,420,chemin principal les îles-de-la-madeleine,G4T1S1,québec,qc,47.376459999999994,-61.867716
7227,clsc de bassin,Ambulatory health care services,599,chemin du bassin,G4T0C6,,qc,47.22181,-61.935714000000004
7777,gmf des îles (clinique santé des îles ),Ambulatory health care services,539,chemin principal les îles-de-la-madeleine,G4T1E7,québec,qc,47.37429,-61.8746
7778,gmf des îles (clsc de l'archipel (point de service)),Ambulatory health care services,430,chemin principal les îles-de-la-madeleine,G4T1R9,québec,qc,47.37623,-61.8676
7996,hôpital de l'archipel,Hospitals,430,ch principal,G4T1R9,cap-aux-meules,qc,47.3764321,-61.867882200000004
8240,maison à damas inc. (la),Nursing and residential care facilities,1202,chemin de la vernière,G4T3E6,,qc,47.372003,-61.898747
