index,facility_name,odhf_facility_type,street_no,street_name,postal_code,city,province,latitude,longitude
6558,centre de santé et de services sociaux de kamouraska,Hospitals,575,rue martin,G0L3Y0,saint-pascal,qc,47.529218,-69.803164
7114,clinique médicale docteure renée roussel,Ambulatory health care services,341,rue rochette,G0L3Y0,saint-pascal,qc,47.525549600000005,-69.81450229999999
7380,clsc de saint-pascal,Ambulatory health care services,595,avenue martin,G0L3Y0,saint-pascal,qc,47.529571000000004,-69.80314
7606,estran (l') centre de réadaptation en dépendance du bas-saint-laurent (saint-pascal),Nursing and residential care facilities,595,avenue martin,G0L3Y0,saint-pascal,qc,47.529723,-69.803162
7709,gmf de kamouraska (clinique médicale saint-pascal),Ambulatory health care services,565,rue taché,G0L3Y0,saint-pascal,qc,47.5267671,-69.8057505
