index,facility_name,odhf_facility_type,street_no,street_name,postal_code,city,province,latitude,longitude
6553,centre de santé et de services sociaux de charlevoix,Hospitals,535,boulevard de comporte,G5A1S8,la malbaie,qc,47.654334999999996,-70.148602
6650,centre de services de la malbaie,Nursing and residential care facilities,367,rue saint-étienne,G5A1M3,la malbaie,qc,47.654140000000005,-70.1494
6656,centre de services de réadaptation en dépendance de la malbaie,Nursing and residential care facilities,535,boulevard de comporté,G5A1S8,la malbaie,qc,47.65423,-70.1488
7291,clsc de la malbaie,Ambulatory health care services,535,boulevard de comporté,G5A1S8,la malbaie,qc,47.65302,-70.1492
7549,cpej et services externes malbaie,Nursing and residential care facilities,385,rue saint-étienne,G5A1S8,la malbaie,qc,47.65311,-70.1493
7674,gmf charlevoix-est (clinique de médecine familiale de la malbaie),Ambulatory health care services,515,rue saint-étienne,G5A1W7,la malbaie,qc,47.647467999999996,-70.152367
7675,gmf charlevoix-est (clinique médicale baril-sauvé),Ambulatory health care services,30,boulevard kane,G5A1J2,la malbaie,qc,47.647335,-70.152098
8000,hôpital de la malbaie,Hospitals,303,rue st-étienne,G5A1T1,la malbaie,qc,47.6558189,-70.15225500000001
8221,maison la montée,Nursing and residential care facilities,,,,,qc,47.63467,-70.1437
