index,facility_name,odhf_facility_type,street_no,street_name,postal_code,city,province,latitude,longitude
7224,clsc de baie-saint-paul,Ambulatory health care services,10,rue boivin,G3Z1S8,baie-saint-paul,qc,47.441829999999996,-70.507
7676,gmf charlevoix-ouest (centre médical fafard eng.),Ambulatory health care services,975,boulevard monseigneur-de laval,G3Z2W3,baie-saint-paul,qc,47.447965,-70.518649
7986,hôpital de baie-saint-paul,Hospitals,88,rue racine,G3Z0K3,baie-saint-paul,qc,47.439840000000004,-70.512085
8479,services externes de baie-saint-paul (centre de réadaptation en dépendance de québec),Nursing and residential care facilities,5,rue boivin,G3Z1S6,baie-saint-paul,qc,47.44146,-70.508
8482,services externes de réadaptation de charlevoix (irdpq),Nursing and residential care facilities,88,rue racine,G3Z0K3,baie-saint-paul,qc,47.43985,-70.5121
