index,facility_name,odhf_facility_type,street_no,street_name,postal_code,city,province,latitude,longitude
8446,résidences du vieux-beauport (les),Nursing and residential care facilities,496,avenue royale,G1E1Y1,québec,qc,46.857321999999996,-71.195552
8457,service urgence sociale,Nursing and residential care facilities,2915,avenue du bourg-royal,G1C3S2,québec,qc,46.85668,-71.2198
8458,services communautaires bilingues jeffery hale,Ambulatory health care services,1270,chemin sainte-foy,G1S2M4,québec,qc,46.79659,-71.2526
8466,services de réadaptation pour les enfants ayant une déficience auditive,Nursing and residential care facilities,2975,chemin saint-louis,G1W1P9,québec,qc,46.75954,-71.2855
8484,services externes de réadaptation à l'école madeleine-bergeron,Nursing and residential care facilities,1505,rue des grandes-marées,G1Y2T3,québec,qc,46.7405,-71.359
8486,services externes en réadaptation à l'école joseph-paquin,Nursing and residential care facilities,465,64e rue est,G1H1Y1,québec,qc,46.855909999999994,-71.2534
8502,sérénité 2007 (la),Nursing and residential care facilities,295,rue des bouleaux ouest,G1L1L9,québec,qc,46.831706,-71.253679
