index,facility_name,odhf_facility_type,street_no,street_name,postal_code,city,province,latitude,longitude
6404,centre de réadaptation en alcoolisme et toxicomanie de beauceville (centre multiservices de santé et de services sociaux de beauceville),Nursing and residential care facilities,253,route 108,G5X2Z3,beauceville,qc,46.205832,-70.784144
6449,centre de réadaptation en déficience physique de beauceville (centre multiservices de santé et de services sociaux de beauceville),Nursing and residential care facilities,253,route 108,G5X2Z3,beauceville,qc,46.205695,-70.784157
6552,centre de santé et de services sociaux de beauce,Hospitals,253,route 108,G5X2Z3,beauceville,qc,46.203383,-70.788158
7108,clinique médicale docteur bruno roy,Ambulatory health care services,603,9e avenue,G5X1J2,beauceville,qc,46.20762,-70.7728
7450,clsc et chsld de beauceville (centre multiservices de santé et de services sociaux de beauceville),Ambulatory health care services,253,route 108,G5X2Z3,beauceville,qc,46.2037,-70.787938
7653,gmf beauceville (coopérative de santé robert-cliche - beauceville),Ambulatory health care services,463,boulevard renault,G5X1N5,beauceville,qc,46.22048,-70.791
8383,prisme hébergement,Nursing and residential care facilities,702,boulevard renault,G5X1L8,beauceville,qc,46.201461,-70.76908
