index,facility_name,odhf_facility_type,street_no,street_name,postal_code,city,province,latitude,longitude
6381,centre de protection et de réadaptation pour les jeunes et les mères en difficulté d'adaptation edgar-laforest,Nursing and residential care facilities,3100,boulevard lemire,J2B7R2,drummondville,qc,45.854642,-72.482332
6599,centre de santé et de services sociaux drummond,Hospitals,570,rue heriot,J2B1C1,drummondville,qc,45.881687,-72.482281
6763,centre multiservices de santé et de services sociaux saint-jean,Ambulatory health care services,350,rue saint-jean,J2B5L4,drummondville,qc,45.8762836,-72.4827952
7077,clinique médicale ambulatoire drummondville (cmad) - site ajc,Ambulatory health care services,110,rue saint-jean,J2B7T1,drummondville,qc,45.880169,-72.479424
7133,clinique médicale gilles montminy,Ambulatory health care services,4534,boulevard saint-joseph,J2A1B5,drummondville,qc,45.840919,-72.435728
7138,clinique médicale l'accès,Ambulatory health care services,3525,boulevard saint-joseph,J2B0H3,drummondville,qc,45.85671,-72.465455
7952,groupe de médecine de famille universitaire de drummondville,Ambulatory health care services,555,rue berol,J2B0W7,drummondville,qc,45.87621,-72.482003
8079,hôpital sainte-croix,Hospitals,570,rue heriot,J2B1C1,drummondville,qc,45.8800085,-72.47718929999999
8163,maison d'hébergement - ensoleilvent inc.,Nursing and residential care facilities,490,rue brock,J2B1E4,drummondville,qc,45.880345,-72.48092
8166,maison d'hébergement - maison habit-action de drummondville inc.,Nursing and residential care facilities,655,rue lindsay,J2B1J1,drummondville,qc,45.876126,-72.476651
8425,réseau d'aide le tremplin,Nursing and residential care facilities,625,rue lindsay,J2B1H8,drummondville,qc,45.876806,-72.477753
8451,service de réadaptation en dépendance du ciusss mcq,Nursing and residential care facilities,350,rue saint-jean,J2B5L4,drummondville,qc,45.876003600000004,-72.4854783
8471,services en déficience intellectuelle et trouble du spectre de l'autisme - institut universitaire - drummondville,Nursing and residential care facilities,440,rue saint-georges,J2C4H4,drummondville,qc,45.8821822,-72.5002286
8480,services externes de drummondville,Nursing and residential care facilities,350,rue saint-jean,J2B5L4,drummondville,qc,45.876003600000004,-72.4854783
