index,facility_name,odhf_facility_type,street_no,street_name,postal_code,city,province,latitude,longitude
6441,centre de réadaptation en déficience physique - installation de saint-jean-sur-richelieu,Nursing and residential care facilities,383,boulevard du séminaire nord,J3B8C5,saint-jean-sur-richelieu,qc,45.311132,-73.263708
6489,centre de réadaptation en dépendance du cisss de la montérégie-ouest - services externes de saint-jean-sur-richelieu,Nursing and residential care facilities,202,rue saint-louis,J3B1Y1,saint-jean-sur-richelieu,qc,45.312625,-73.262068
6619,centre de santé et de services sociaux haut-richelieu-rouville,Hospitals,978,boulevard du seminaire nord,J3A1E5,saint-jean-sur-richelieu,qc,45.338156,-73.268434
6708,centre hygie,Ambulatory health care services,21,rue moreau,J2W1J1,saint-jean-sur-richelieu,qc,45.350471999999996,-73.29253299999999
7299,clsc de la vallée-des-forts,Ambulatory health care services,978,boulevard du séminaire nord,J3A1E5,saint-jean-sur-richelieu,qc,45.3357229,-73.2696392
7515,clsc vallée des forts (point de service clinique jeunesse ),Ambulatory health care services,185,rue champlain,J3B6V5,saint-jean-sur-richelieu,qc,45.305744,-73.252002
8024,hôpital du haut-richelieu,Hospitals,920,boul du séminaire nord,J3A1B7,saint-jean-sur-richelieu,qc,45.3324935,-73.2701875
8112,institut nazareth et louis-braille (point de service saint-jean-sur-richelieu),Nursing and residential care facilities,383,boulevard du séminaire nord,J3B8C5,saint-jean-sur-richelieu,qc,45.311172,-73.263705
8464,services de réadaptation du sud-ouest et du renfort (les) - point de service saint-jean-sur-richelieu,Nursing and residential care facilities,315,rue macdonald,J3B8J3,saint-jean-sur-richelieu,qc,45.326097,-73.265833
