index,facility_name,odhf_facility_type,street_no,street_name,postal_code,city,province,latitude,longitude
6183,arche monteregie (l),Nursing and residential care facilities,221,rue bernard-pilon,J3G1V2,beloeil,qc,45.548628,-73.21899
6208,atelier et centre d'activités de jour saint-charles beloeil,Nursing and residential care facilities,35,rue saint-charles,J3G4L2,beloeil,qc,45.549415,-73.218482
6436,centre de réadaptation en déficience intellectuelle et trouble du spectre de l'autisme - services externes de beloeil,Nursing and residential care facilities,255,rue choquette,J3G4V6,beloeil,qc,45.552034,-73.216205
6546,centre de santé et d'harmonie du richelieu inc,Ambulatory health care services,924,rue richelieu,J3G4P9,beloeil,qc,45.568339,-73.200339
6814,ch champlain-beloeil,Nursing and residential care facilities,221,rue brunelle,J3G2M9,beloeil,qc,45.5658927,-73.2065199
7414,clsc des patriotes beloeil,Ambulatory health care services,300,rue serge-pépin,J3G0B8,beloeil,qc,45.591091999999996,-73.199664
7594,envolee (l),Nursing and residential care facilities,75,rue orsali,J3G2E5,beloeil,qc,45.553595,-73.209907
7631,foyer de la montagne,Nursing and residential care facilities,15,rue mésy,J3G3L2,beloeil,qc,45.553713,-73.225178
7633,foyer fleurs de soleil,Nursing and residential care facilities,1200,rue richelieu,J3G4R3,beloeil,qc,45.57561,-73.1964
8198,maison de répit l'intermède,Nursing and residential care facilities,192,rue f-x-garneau,J3G4Y1,beloeil,qc,45.559635,-73.22503499999999
