index,facility_name,odhf_facility_type,street_no,street_name,postal_code,city,province,latitude,longitude
6174,accueil jeunesse lanaudière (auberges du coeur),Nursing and residential care facilities,1094,boulevard manseau,J6E3G8,joliette,qc,46.017803,-73.450653
6303,centre champagneur (clercs de saint-viateur du canada),Ambulatory health care services,132,rue saint-charles-borromée nord,J6E4R2,joliette,qc,46.02875,-73.43719399999999
6416,centre de réadaptation en déficience intellectuelle et en trouble du spectre de l'autisme saint-louis,Nursing and residential care facilities,845,rue saint-louis,J6E3A3,joliette,qc,46.021637,-73.447598
6452,centre de réadaptation en déficience physique de joliette,Nursing and residential care facilities,1075,boulevard de la firestone,J6E6X6,joliette,qc,46.032902,-73.424614
6453,centre de réadaptation en déficience physique de l'assomption,Nursing and residential care facilities,410,boulevard de l'ange-gardien,J5W1S7,l'assomption,qc,46.032902,-73.424614
6529,centre de réadaptation pour les jeunes en difficulté d'adaptation de joliette,Nursing and residential care facilities,1170,rue ladouceur,J6E3W7,joliette,qc,46.032932,-73.418599
6647,centre de services ambulatoires en santé mentale et de réadaptation en dépendance de joliette,Nursing and residential care facilities,339,boulevard base-de-roc,J6E5P3,joliette,qc,46.018794,-73.438096
6922,cisss de lanaudière,Ambulatory health care services,260,rue lavaltrie sud,J6E5X7,joliette,qc,46.01835,-73.441296
7135,clinique médicale harnois,Ambulatory health care services,584,boulevard manseau,J6E3E4,joliette,qc,46.023794,-73.441987
7273,clsc de joliette,Ambulatory health care services,380,boulevard base-de-roc,J6E9J6,joliette,qc,46.019008,-73.436922
7546,corporation répit-dépannage de lanaudière (la maison clémentine),Nursing and residential care facilities,159,rue lajoie nord,J6E5K6,joliette,qc,46.025381,-73.44380699999999
7971,hébergement d'urgence lanaudière,Nursing and residential care facilities,864,boulevard manseau,J6E3G3,joliette,qc,46.020614,-73.446624
8181,maison d'hébergement jeunesse roland gauvreau (auberges du coeur),Nursing and residential care facilities,638,boulevard de la base-de-roc,J6E5P7,joliette,qc,46.015572,-73.432273
8217,maison l'intersection,Nursing and residential care facilities,387,rue baby,J6E2V9,joliette,qc,46.027475,-73.44199499999999
8236,maison oxygène joliette-lanaudière,Nursing and residential care facilities,740,rue saint-thomas,J6E3R5,joliette,qc,46.028321999999996,-73.428912
8244,maisons d'à côté lanaudière (les),Nursing and residential care facilities,639,rue henri-châlin,J6E0A4,joliette,qc,46.02715,-73.460321
8501,suivi intensif dans le milieu - santé mentale,Hospitals,339,boulevard de la base-de-roc,J6E5P3,joliette,qc,46.018988,-73.438067
