index,facility_name,odhf_facility_type,street_no,street_name,postal_code,city,province,latitude,longitude
6438,centre de réadaptation en déficience physique (centre hospitalier de lanaudière),Nursing and residential care facilities,1000,boulevard sainte-anne,J6E6J2,saint-charles-borromée,qc,46.039103000000004,-73.456585
6614,centre de santé et de services sociaux du nord de lanaudière,Hospitals,1000,boul sainte-anne,J6E6J2,saint-charles-borromée,qc,46.038253999999995,-73.455634
6691,centre hospitalier de lanaudière,Hospitals,1000,boulevard sainte-anne,J6E6J2,saint-charles-borromée,qc,46.039293,-73.456685
6842,ch régional de lanaudière,Hospitals,1000,boul ste-anne,J6E6J2,saint-charles-borromée,qc,46.0382912,-73.4558574
7119,clinique médicale dre suzanne landry,Ambulatory health care services,590,rue de la visitation,J6E4P6,saint-charles-borromée,qc,46.050056,-73.465469
7124,clinique médicale du havre,Ambulatory health care services,150,rue roméo-gaudreault,J6E0W1,saint-charles-borromée,qc,46.047247,-73.452261
7161,clinique médicale privée accès md,Ambulatory health care services,28,chemin du golf est,J6E2B4,saint-charles-borromée,qc,46.043366,-73.448134
7591,défis-logis lanaudière,Nursing and residential care facilities,105,rue marie-curie,J6E0V2,saint-charles-borromée,qc,46.035413,-73.45784
7703,gmf de joliette (clinique familiale brind'amour),Ambulatory health care services,185,rue bernard,J6E2C4,saint-charles-borromée,qc,46.036188,-73.45255
7704,gmf de joliette (clinique médicale lanaudière),Ambulatory health care services,222,rue bernard,J6E2C5,saint-charles-borromée,qc,46.036675,-73.452465
7938,gmf-u du nord de lanaudière (gmf-u de saint-charles-borromée),Ambulatory health care services,50,chemin du golf ouest,J6E0W6,saint-charles-borromée,qc,46.040376,-73.453861
