index,facility_name,odhf_facility_type,street_no,street_name,postal_code,city,province,latitude,longitude
6371,centre de protection de l'enfance et de la jeunesse de mascouche,Nursing and residential care facilities,3083,boulevard de mascouche,J7K3B7,mascouche,qc,45.742585,-73.600831
6411,centre de réadaptation en déficience intellectuelle et en trouble du spectre de l'autisme de mascouche,Nursing and residential care facilities,1280,chemin saint-henri,J7K2N1,mascouche,qc,45.753417,-73.598221
7572,diapason (le) (auberges du coeur),Nursing and residential care facilities,1731,rue maple,J7L2K9,mascouche,qc,45.728427,-73.655102
7682,gmf clinique médicale mascouche,Ambulatory health care services,1025,montée masson,J7K2L9,mascouche,qc,45.746743,-73.606174
7732,gmf de mascouche (médi-centre mascouche),Ambulatory health care services,880,montée masson,J7K2L7,mascouche,qc,45.743836,-73.608207
7959,habitat jeunesse mascouche,Nursing and residential care facilities,2973,chemin sainte-marie,J7K1N8,mascouche,qc,45.747696000000005,-73.602173
