index,facility_name,odhf_facility_type,street_no,street_name,postal_code,city,province,latitude,longitude
6178,anne marie dollois - services médicaux dollois inc.,Ambulatory health care services,269,boulevard saint-jean,H9R3J1,pointe-claire,qc,45.4447995,-73.8158698
6267,"cabinet des docteurs eiley, el-hakim et jacobson",Ambulatory health care services,175,avenue stillview,H9R4S3,pointe-claire,qc,45.450508,-73.832545
6306,centre d'accueil le programme de portage (centre de services de l'ouest-de-l'île),Nursing and residential care facilities,7,avenue revcon,H9R4Z7,pointe-claire,qc,45.4689965,-73.830702
6311,centre d'activites de jour hymus,Nursing and residential care facilities,325,boulevard hymus,H9R1G6,pointe-claire,qc,45.4542304,-73.83666240000001
6317,centre d'activités de jour cartier,Nursing and residential care facilities,147,avenue cartier,H9S4R9,pointe-claire,qc,45.4377521,-73.8285067
6343,centre d'activités de jour options,Nursing and residential care facilities,93,boulevard hymus,H9R1E2,pointe-claire,qc,45.469944700000006,-73.80647420000001
6517,centre de réadaptation lethbridge-layton-mackay (point de service pointe-claire),Nursing and residential care facilities,180,avenue cartier,H9S4S1,pointe-claire,qc,45.4388818,-73.8296387
6559,centre de santé et de services sociaux de l'ouest-de-l'île,Hospitals,160,avenue stillview,H9R2Y3,pointe-claire,qc,45.449449,-73.832252
6963,ciusss de l'ouest-de-l'île-de-montréal,Ambulatory health care services,160,avenue stillview,H9R2Y2,pointe-claire,qc,45.448707,-73.833263
7431,clsc du lac-saint-louis,Ambulatory health care services,180,avenue cartier,H9S4S1,pointe-claire,qc,45.438932,-73.827489
8037,hôpital général du lakeshore,Hospitals,160,avenue stillview,H9R2Y2,pointe-claire,qc,45.448734,-73.83335699999999
8139,lakeshore general hospital - pointe-claire,Hospitals,160,stillview rd,H9R2Y2,pointe-claire,qc,45.4487003,-73.833265
