index,facility_name,odhf_facility_type,street_no,street_name,postal_code,city,province,latitude,longitude
6507,centre de réadaptation en dépendances des laurentides (argenteuil),Nursing and residential care facilities,145,avenue de la providence,J8H4C7,lachute,qc,45.66138,-74.35274799999999
6550,centre de santé et de services sociaux d'argenteuil,Hospitals,145,avenue de la providence,J8H4C7,lachute,qc,45.662725,-74.351475
6673,centre du florès / point de service argenteuil et casis argenteuil,Nursing and residential care facilities,390,avenue bethany,J8H4G8,lachute,qc,45.64511969,-74.32914269
6744,centre multiservices de santé et de services sociaux d'argenteuil,Hospitals,145,avenue de la providence,J8H4C7,lachute,qc,45.661946,-74.352961
7216,clsc d'argenteuil (centre multiservices de santé et de services sociaux d'argenteuil,Ambulatory health care services,145,avenue de la providence,J8H4C7,lachute,qc,45.663015,-74.351815
8284,pavillon hamford,Nursing and residential care facilities,236,avenue hamford,J8H3P1,lachute,qc,45.64933,-74.353235
