index,facility_name,odhf_facility_type,street_no,street_name,postal_code,city,province,latitude,longitude
6425,centre de réadaptation en déficience intellectuelle et en troubles envahissants du développement d'amos,Nursing and residential care facilities,841,3e rue ouest,J9T2T4,amos,qc,48.578708,-78.12433100000001
6466,centre de réadaptation en déficience physique et en déficience intellectuelle et en troubles envahissants du développement d'amos,Nursing and residential care facilities,841,3e rue ouest,J9T2T4,amos,qc,48.578708,-78.12433100000001
6474,centre de réadaptation en dépendance d'amos,Nursing and residential care facilities,632,1re rue ouest,J9T2N2,amos,qc,48.573747999999995,-78.118112
6622,centre de santé et de services sociaux les eskers de l'abitibi,Hospitals,622,4e rue ouest,J9T2S2,amos,qc,48.575022,-78.126198
7060,clinique humanessence,Ambulatory health care services,511,7e rue ouest,J9T2Y3,amos,qc,48.572576,-78.13372199999999
7214,clsc d'amos,Ambulatory health care services,632,1re rue ouest,J9T2N2,amos,qc,48.573734,-78.11804000000001
7568,csss les eskers de l'abitibi,Hospitals,622,4e rue ouest,J9T2S2,amos,qc,48.57631,-78.125164
7808,gmf harricana (clinique médicale amos),Ambulatory health care services,641,4e rue ouest,J9T2S1,amos,qc,48.574857,-78.127023
7828,gmf les eskers d'amos (clinique médicale le norois),Ambulatory health care services,641,4e rue ouest,J9T2S1,amos,qc,48.574857,-78.127023
7829,gmf les eskers d'amos (gmf-u les eskers et groupe médicale soleil),Ambulatory health care services,692,4e avenue ouest,J9T0B7,amos,qc,48.574933,-78.127853
8042,hôpital hôtel-dieu d'amos,Hospitals,622,4e rue ouest,J9T2S2,amos,qc,48.574766,-78.12549
8205,maison du bouleau blanc (la),Nursing and residential care facilities,2557,1re rue est,J9T3A1,amos,qc,48.59454,-78.105867
