index,facility_name,odhf_facility_type,street_no,street_name,postal_code,city,province,latitude,longitude
6424,centre de réadaptation en déficience intellectuelle et en troubles du spectre de l'autisme et de réadaptation en déficience physique de sept-îles,Nursing and residential care facilities,450,avenue évangéline,G4R2N5,sept-îles,qc,50.208059000000006,-66.381366
6534,centre de réadaptation pour les jeunes en difficulté d'adaptation de sept-îles,Nursing and residential care facilities,27,rue de la vérendrye,G4R5E3,sept-îles,qc,50.220383,-66.365566
6589,centre de santé et de services sociaux de sept-îles,Hospitals,45,rue du pere-divet,G4R3N7,sept-îles,qc,50.209716,-66.383587
6755,centre multiservices de santé et de services sociaux de sept-îles,Ambulatory health care services,531,avenue gamache,G4R2J1,sept-îles,qc,50.210522,-66.381766
7107,clinique médicale docteur bernard laplante (sept-îles),Ambulatory health care services,707,avenue arnaud,G4R3B6,sept-îles,qc,50.211453000000006,-66.39619300000001
7395,clsc de sept-îles (édifice du docteur-gérard-beaulieu),Ambulatory health care services,405,avenue brochu,G4R2W9,sept-îles,qc,50.205482,-66.384212
7567,csss de sept-îles,Hospitals,45,rue père divet,G4R3N7,sept-îles,qc,50.209716,-66.383587
7919,gmf vents et marées (clinique médicale vents et marées),Ambulatory health care services,391,avenue brochu,G4R4S7,sept-îles,qc,50.204607,-66.384098
8017,hôpital de sept-îles,Hospitals,45,rue du père-divet,G4R3N7,sept-îles,qc,50.20986,-66.383608
8235,maison oxygène jack-monoloy - sept-îles,Nursing and residential care facilities,652,avenue de quen,G4R2R5,sept-îles,qc,50.212563,-66.389082
8375,polyclinique de l'anse (sept-îles),Ambulatory health care services,78,rue lemaire,G4S1A3,sept-îles,qc,50.232758000000004,-66.388064
8504,transit sept-îles,Nursing and residential care facilities,409,avenue gamache,G4R2H8,sept-îles,qc,50.20825,-66.37911700000001
8525,âtre (l') de sept-îles,Nursing and residential care facilities,409,avenue de quen,G4R2R1,sept-îles,qc,50.206517,-66.382237
