index,facility_name,odhf_facility_type,street_no,street_name,postal_code,city,province,latitude,longitude
2580,auberge plein soleil,Nursing and residential care facilities,258,telegraphe road,K0B1A0,alfred,on,45.55953881,-74.87851758
2940,centre d'accueil mon chez nous,Nursing and residential care facilities,2025,rue lajoie,K0B1J0,lefaivre,on,45.63941613,-74.89555409
4743,pension du bonheur,Nursing and residential care facilities,176,st joseph street,K0B1A0,alfred,on,45.56088511,-74.87676008
4784,pinecrest (plantagenet),Nursing and residential care facilities,101,parent street,K0B1L0,plantagenet,on,45.5420141,-74.99812112
4798,plantagenet family health team,Ambulatory health care services,179,old highway 17,K0B1L0,plantagenet,on,45.5409067,-74.98872361
5923,villa st. luc,Nursing and residential care facilities,839,rue cartier,K0B1C0,curran,on,45.490573100000006,-74.99346311
