index,facility_name,odhf_facility_type,street_no,street_name,postal_code,city,province,latitude,longitude
2857,caressant care bourget,Nursing and residential care facilities,2279,laval road,K0A1E0,clarence-rockland,on,45.43608988,-75.15507656
2941,centre d'accueil roger seguin,Nursing and residential care facilities,435,lemay street,K0A1N0,clarence creek,on,45.51025689,-75.21616879
3190,clarence-rockland fht,Ambulatory health care services,2741,chamberland street,K4K0B4,clarence-rockland,on,45.54450839,-75.30124672
3918,hotel-dieu grace healthcare css,Nursing and residential care facilities,845,saint jean street,K4K1K5,clarence-rockland,on,45.54524319,-75.29106901
4013,jardins belle rive,Nursing and residential care facilities,2950,laurier street,K4K1T3,clarence-rockland,on,45.53800249,-75.30540212
4275,manoir rockland manor,Nursing and residential care facilities,9045,county road 17,K4K0J9,clarence-rockland,on,45.54633329,-75.30048322
5099,résidence st-mathieu,Nursing and residential care facilities,3140,gendron road,K0A2A0,clarence-rockland,on,45.440251,-75.23995500000001
7962,habitations l'escalier de montréal (les),Nursing and residential care facilities,2295,avenue desjardins,H1V2H6,montréal,qc,45.402332200000004,-75.2439282
7972,hébergement jeunesse le tournant,Nursing and residential care facilities,1775,rue wolfe,H2L3J9,montréal,qc,45.385006700000005,-75.2490965
8519,villa saint-martin,Nursing and residential care facilities,9451,boulevard gouin ouest,H8Y1T2,montréal,qc,45.3821027,-75.2490965
