index,facility_name,odhf_facility_type,street_no,street_name,postal_code,city,province,latitude,longitude
2461,almonte country haven,Nursing and residential care facilities,333,country street,K0A1A0,mississippi mills,on,45.2188403,-76.19075728
2462,almonte general hospital,Hospitals,75,spring st,K0A1A0,almonte,on,45.229134,-76.189495
3296,country view lodge,Nursing and residential care facilities,4676,darks side road,K0A2X0,pakenham,on,45.34114702,-76.28200362
3533,fairview manor,Nursing and residential care facilities,75,spring street,K0A1A0,mississippi mills,on,45.2287855,-76.18998128
4391,mills community support corporation,Nursing and residential care facilities,67,industrial drive,K0A1A0,mississippi mills,on,45.2319404,-76.17982318
4670,orchard view by the mississippi inc.,Nursing and residential care facilities,219,paterson street,K0A1A0,mississippi mills,on,45.2288455,-76.17921898
4682,ottawa valley family health team,Ambulatory health care services,75,spring street,K0A1A0,mississippi mills,on,45.2287855,-76.18998128
