index,facility_name,odhf_facility_type,street_no,street_name,postal_code,city,province,latitude,longitude
2688,bowmanville creek retirement community,Nursing and residential care facilities,105,queen street,L1C0T3,bowmanville,on,43.91037416,-78.68822688
3636,glen hill marnwood,Nursing and residential care facilities,26,elgin street,L1C3C8,bowmanville,on,43.91589256,-78.68988509
3637,glen hill strathaven,Nursing and residential care facilities,264,king street e,L1C1P9,bowmanville,on,43.91212066,-78.67361278
3798,harmony estate seniors residence inc.,Nursing and residential care facilities,3589,tooley road,L1E2G9,courtice,on,43.92292826,-78.80593782
4118,lakeridge health - bowmanville,Hospitals,47,liberty st s,L1C2N4,bowmanville,on,43.909145,-78.6791354
5166,seasons clarington,Nursing and residential care facilities,65,clarington boulevard,L1C0A1,bowmanville,on,43.90714436,-78.70603649
6043,white cliffe terrace,Nursing and residential care facilities,1460,highway 2,L1E3C4,courtice,on,43.90800196,-78.80663142
