index,facility_name,odhf_facility_type,street_no,street_name,postal_code,city,province,latitude,longitude
4363,meals on wheels port colborne inc.,Ambulatory health care services,260,sugarloaf street,L3K2N7,port colborne,on,42.87955475,-79.25899238
4484,niagara health system - port colborne,Hospitals,260,sugarloaf street,L3K2N7,port colborne,on,42.879782299999995,-79.2596002
4485,niagara health system - port colborne general site,Hospitals,260,sugarloaf st,L3K2N7,port colborne,on,42.879704100000005,-79.2586964
4598,northland pointe,Nursing and residential care facilities,2,fielden avenue,L3K6G4,port colborne,on,42.8807752,-79.25766920000001
4812,portal village retirement home,Nursing and residential care facilities,300,elgin street,L3K6A3,port colborne,on,42.88749045,-79.26194028
