index,facility_name,odhf_facility_type,street_no,street_name,postal_code,city,province,latitude,longitude
2530,anagram premier/rescare premier canada,Ambulatory health care services,990,line 1 road,L0S1J0,niagara-on-the-lake,on,43.22611312,-79.09861726
3036,chartwell niagara long term care residence,Nursing and residential care facilities,120,wellington street,L0S1J0,niagara-on-the-lake,on,43.2549638,-79.0657413
4482,niagara health system - niagara-on-the-lake,Hospitals,176,wellington,L0S1J0,niagara-on-the,on,43.25373703,-79.06722095
4483,niagara health system - niagara-on-the-lake hospital site,Hospitals,176,wellington st,L0S1J0,niagara-on-the-lake,on,43.253223299999995,-79.06611690000001
4499,niagara-on-the lake community palliative care service,Ambulatory health care services,120,byron street,L0S1J0,niagara-on-the-lake,on,43.253223299999995,-79.06611690000001
4799,pleasant manor retirement village,Nursing and residential care facilities,15,elden street,L0S1T0,niagara-on-the-lake,on,43.22673892,-79.12186246
4800,pleasant manor retirement village - heritage place,Ambulatory health care services,15,elden street,L0S1T0,niagara-on-the-lake,on,43.22673892,-79.12186246
5862,upper canada lodge,Nursing and residential care facilities,272,wellington street,L0S1J0,niagara-on-the-lake,on,43.25020429999999,-79.0694642
