index,facility_name,odhf_facility_type,street_no,street_name,postal_code,city,province,latitude,longitude
3290,country manor retirement home,Nursing and residential care facilities,66,victoria street,N0M2N0,lambton shores,on,43.16243938,-81.85244972
3669,grand bend area community health centre,Hospitals,69,main street s,N0M1T0,exeter,on,43.309940600000004,-81.7502814
3670,grand bend area community health centre inc.,Ambulatory health care services,69,main street e,N0M1T0,lambton shores,on,43.30994901,-81.7502855
4539,north lambton community health centre,Hospitals,59,king street w,N0N1J0,lambton shores,on,43.09633566,-82.00250066
4540,north lambton lodge,Nursing and residential care facilities,39,morris street,N0N1J0,lambton shores,on,43.09281026,-81.99290376
