index,facility_name,odhf_facility_type,street_no,street_name,postal_code,city,province,latitude,longitude
2416,aboriginal community based non-residential mental health services (css),Ambulatory health care services,161,applegrove street,P3C1N2,sudbury,on,46.49171358,-81.00200379
2505,alzheimer society sudbury-manitoulin,Ambulatory health care services,960,notre dame avenue,P3A2T4,sudbury,on,46.51756439,-80.98200638
2778,canadian hearing society - sudbury,Ambulatory health care services,1233,paris street,P3E3B6,sudbury,on,46.46679218,-80.99968868
2804,canadian mental health association (cmha) sudbury - manitoulin branch,Nursing and residential care facilities,111,elm street,P3C1T3,sudbury,on,46.49293048,-80.99918868
2820,canadian red cross - sudbury branch,Ambulatory health care services,1460,fairburn street,P3A1N7,sudbury,on,46.51765999,-80.94285127
2835,capreol nurse practitioner-led clinic,Ambulatory health care services,49,young street,P0M1H0,capreol,on,46.70910902,-80.92637518
2947,centre de santé communautaire de sudbury,Hospitals,19,frood road,P3C4Y9,sudbury,on,46.49377068,-80.99830178
3032,chartwell meadowbrook retirement community,Nursing and residential care facilities,18,jacobson drive,P3Y1P7,sudbury,on,46.42492066,-81.14115202
3091,chartwell southwind retirement residence,Nursing and residential care facilities,1645,paris street,P3E6L5,sudbury,on,46.45963938,-81.00297678
3109,chartwell westmount on william retirement residence,Nursing and residential care facilities,599,william avenue,P3A5E3,sudbury,on,46.50942279,-80.94676907
3166,city of lakes family health team,Ambulatory health care services,960,notre dame avenue,P3A2T4,sudbury,on,46.51756439,-80.98200638
3201,cnib - sudbury & manitoulin district,Ambulatory health care services,303,york street,P3E2A5,sudbury,on,46.47508828,-81.00634068
3449,elizabeth centre,Nursing and residential care facilities,2100,main street,P3N1S7,sudbury,on,46.6119611,-81.02674901
3490,extendicare falconbridge,Nursing and residential care facilities,281,falconbridge road,P3A5K4,sudbury,on,46.50713379,-80.93753367
3520,extendicare york,Nursing and residential care facilities,333,york street,P3E5J3,sudbury,on,46.47514368,-81.00771419
3560,finlandia hoivakoti nursing home,Nursing and residential care facilities,233,fourth avenue,P3B4C3,sudbury,on,46.48424888,-80.92711026
3561,finlandia village,Ambulatory health care services,233,fourth avenue,P3B4C3,sudbury,on,46.48424888,-80.92711026
3690,greater city of sudbury program for community living,Ambulatory health care services,15,kin drive,P3Y1N1,sudbury,on,46.43849906,-81.14574553
3822,health sciences north (css),Ambulatory health care services,41,ramsey lake road,P3E5J1,sudbury,on,46.46793268,-80.99662778
3823,health sciences north - ramsey lake health centre,Hospitals,41,ramsey lake rd,P3E5J1,sudbury,on,46.4679347,-80.99628359999998
3824,health sciences north - sudbury mental health and addictions centre,Nursing and residential care facilities,680,kirkwood dr,P3E1X3,sudbury,on,46.4918343,-80.99217809999999
3825,health sciences north/ horizon santé-nord,Nursing and residential care facilities,41,ramsey lake road,P3E5J1,sudbury,on,46.46793268,-80.99662778
3970,hôpital régional de sudbury regional hospital,Hospitals,41,ramsey lake road,P3E5J1,sudbury,on,46.467985999999996,-80.996107
3975,ican-independence centre and network,Ambulatory health care services,765,brennan road,P3C1C4,sudbury,on,46.48088398,-81.01745719
4159,lasalle residence for seniors,Nursing and residential care facilities,1758,lasalle boulevard,P3A5W4,sudbury,on,46.52276689,-80.93311137
4249,maison de soins palliatifs de sudbury hospice,Ambulatory health care services,1028,south bay road,P3E6J7,sudbury,on,46.470769,-80.96757099999999
4307,march of dimes canada - sudbury,Ambulatory health care services,96,larch street,P3E1C1,sudbury,on,46.49155318,-80.99327208
4356,meals on wheels (sudbury) inc.,Ambulatory health care services,1127,bancroft drive,P3B1R6,sudbury,on,46.49470768,-80.95971647
4420,monarch recovery services,Nursing and residential care facilities,17,frood road,P3C4Y9,sudbury,on,46.49331688,-80.99805638
4454,n'swakamok native friendship centre,Nursing and residential care facilities,110,elm street,P3C1T5,sudbury,on,46.49312158,-80.99907568
4455,n'swakamok native friendship centre - css,Ambulatory health care services,110,elm street,P3C1T5,sudbury,on,46.49312158,-80.99907568
4525,north bay regional health centre - kirkwood,Hospitals,680,kirkwood drive,P3E1X3,sudbury,on,46.478219,-80.963619
4532,north east community care access centre (css),Ambulatory health care services,40,elm street,P3C1S8,sudbury,on,46.4940499,-80.99275990000001
4597,northern ontario school of medicine,Ambulatory health care services,935,ramsey lake road,P3E2C6,sudbury,on,46.463626,-80.964001
4694,palliative caregivers sudbury/manitoulin,Ambulatory health care services,303,york street,P3E2A5,sudbury,on,46.47508828,-81.00634068
4792,pioneer manor,Nursing and residential care facilities,960,notre dame avenue,P3A2T4,sudbury,on,46.51756439,-80.98200638
4897,red oak villa,Nursing and residential care facilities,20,ste anne road,P3C5N4,sudbury,on,46.49554268,-80.99677148
4905,regent manor,Nursing and residential care facilities,1315,regent street,P3E3Z1,sudbury,on,46.46335238,-81.01002818
5234,shkagamik-kwe health centre,Nursing and residential care facilities,161,applegrove street,P3C1N2,sudbury,on,46.49171358,-81.00200379
5408,st. gabriel's villa of sudbury,Nursing and residential care facilities,4690,regional road 15,P0M1L0,sudbury,on,46.575821000000005,-81.183418
5421,st. joseph's continuing care centre of sudbury,Hospitals,1140,south bay road,P3E0B6,sudbury,on,46.46719898,-80.96760137
5444,"st. joseph's villa, sudbury",Nursing and residential care facilities,1250,south bay road,P3E6L9,sudbury,on,46.46661488,-80.96677167
5500,sudbury and district health unit,Ambulatory health care services,1300,paris street,P3E3A3,sudbury,on,46.46622418,-80.99844758
5501,sudbury district nurse practitioner clinics,Ambulatory health care services,359,riverside drive,P3E1H5,sudbury,on,46.48222358,-81.00645759
5566,the amberwood suites,Nursing and residential care facilities,1385,regent street s,P3E3Z1,sudbury,on,46.46167978,-81.01101148
5714,the walford on the park (copper cliff),Nursing and residential care facilities,38,godfrey drive,P0M1N0,sudbury,on,46.47788927,-81.06941921
5715,the walford sudbury,Nursing and residential care facilities,99,walford road,P3E6K3,sudbury,on,46.46283498,-80.99596918
5831,ukrainian seniors' centre of sudbury inc.,Ambulatory health care services,30,notre dame avenue,P3C5K2,sudbury,on,46.49389698,-80.99034218
5940,von - ontario branch - greater sudbury site,Ambulatory health care services,2140,regent street s,P3E5S8,sudbury,on,46.45134287,-80.99571568
