index,facility_name,odhf_facility_type,street_no,street_name,postal_code,city,province,latitude,longitude
8751,manitou lodge,Nursing and residential care facilities,,,S0K4T0,watrous,sk,51.67472,-105.456189
8836,public health-saskatoon health (wastrous),Ambulatory health care services,704,4 street,S0K4T0,watrous,sk,51.674064,-105.45563100000001
8954,watrous district health complex,Hospitals,702,4 street e box 130 watrous sk sok,,watrous,sk,51.674059,-105.455606
8957,watrous hospital,Nursing and residential care facilities,702,4 st e,S0K4T0,watrous,sk,51.674001200000006,-105.4556517
8958,watrous primary health centre,Ambulatory health care services,702,4 street e,S0K4T0,watrous,sk,51.674797,-105.456053
