index,facility_name,odhf_facility_type,street_no,street_name,postal_code,city,province,latitude,longitude
8755,meadow lake community services,Ambulatory health care services,9-711,centre street,S9X1E6,meadow lake,sk,54.12368000000001,-108.43338700000001
8756,meadow lake home care services,Nursing and residential care facilities,7-711,centre street,S9X1E6,meadow lake,sk,54.12368000000001,-108.43338700000001
8757,meadow lake hospital,Hospitals,7 711,centre street,S9X1E6,meadow lake,sk,54.123881999999995,-108.433623
8758,meadow lake primary health care centre,Ambulatory health care services,218,centre street,S9X1Z1,meadow lake,sk,54.130877000000005,-108.433251
8789,northland pioneers lodge,Nursing and residential care facilities,515,3 street w,S9X1L1,meadow lake,sk,54.127390000000005,-108.437823
8790,northwest health facility,Hospitals,2 711,centre st,S9X1E6,meadow lake,sk,54.123568799999994,-108.43473610000001
