index,facility_name,odhf_facility_type,street_no,street_name,postal_code,city,province,latitude,longitude
10,alberta children's hospital,Hospitals,2888,shaganappi trail nw,T3B6A8,calgary,ab,51.1267877,-114.1329645
130,foothills medical centre,Hospitals,1403,29 st nw,T2N2T9,calgary,ab,51.0642833,-114.13394779999999
209,peter lougheed centre,Hospitals,3500,26 ave ne,T1Y6J4,calgary,ab,51.078059,-113.98295
236,richmond road diagnostic & treatment centre,Hospitals,1820,richmond road sw,T2T5C7,calgary,ab,51.035999,-114.110878
241,rockyview general hospital,Hospitals,7007,14 st sw,T2V1P9,calgary,ab,50.989822100000005,-114.096632
262,south health campus,Hospitals,4448,front street se,T3M1M4,calgary,ab,50.8820756,-113.95114369999999
301,tom baker cancer centre,Hospitals,1331,29 st nw,T2N4N2,calgary,ab,51.063131,-114.13325800000001
