index,facility_name,odhf_facility_type,street_no,street_name,postal_code,city,province,latitude,longitude
570,cdscl 25th avenue,Nursing and residential care facilities,635,25 avenue s,V0B1G0,creston,bc,49.0886024,-116.49528980000001
572,cdscl purcell place,Nursing and residential care facilities,535,18 ave s,V0B1G3,creston,bc,49.089596,-116.504221
667,crest view care village,Nursing and residential care facilities,800,cavell street,V0B1G4,creston,bc,49.1043599,-116.51571470000002
669,creston valley hospital,Hospitals,312,15 ave,V0B1G0,creston,bc,49.0987024,-116.50831029999999
670,creston valley hospital and health centre,Hospitals,312,15 avenue n,V0B1G0,creston,bc,49.098702,-116.50830900000001
1584,swan valley lodge-30,Nursing and residential care facilities,818,vancouver st,V0B1G0,creston,bc,49.0979123,-116.5153237
