index,facility_name,odhf_facility_type,street_no,street_name,postal_code,city,province,latitude,longitude
443,bayshore home,Nursing and residential care facilities,44419,bayshore ave,V2R0A5,chilliwack,bc,49.1007302,-121.99470649999999
583,chadsey house,Nursing and residential care facilities,7400,sunshine dr,V2R1H6,chilliwack,bc,49.1367191,-121.97334359999999
607,chilliwack general hospital,Hospitals,45600,menholm rd,V2P1P7,chilliwack,bc,49.1669926,-121.96306799999999
608,chilliwack lifestyles willow manor,Nursing and residential care facilities,6980,vedder rd,V2R4E1,chilliwack,bc,49.128984,-121.959427
734,eden care centre,Nursing and residential care facilities,9100,charles st,V2P5K6,chilliwack,bc,49.167238299999994,-121.9419001
740,edwards crossing medical,Ambulatory health care services,9-45955,yale road,V2P2M4,chilliwack,bc,49.168184000000004,-121.95839199999999
940,horizon access clinic,Ambulatory health care services,9105,sunset drive,V2P3X8,chilliwack,bc,49.168381,-121.967945
1263,pacifica house,Nursing and residential care facilities,46110,collins dr,V2R2G2,chilliwack,bc,49.1262975,-121.9500919
1562,stevenson open access clinic,Ambulatory health care services,6640,vedder road,V2R0J2,chilliwack,bc,49.124465,-121.95914099999999
1606,the cascades,Nursing and residential care facilities,45586,mcintosh dr,V2P7W8,chilliwack,bc,49.160818,-121.96296979999998
1612,the divisions of family practice,Ambulatory health care services,7201,vedder road,V2R4G5,chilliwack,bc,49.16583,-121.9626
1659,topaz place,Nursing and residential care facilities,45438,knight rd,V2R5E6,chilliwack,bc,49.139463799999994,-121.9679091
1701,valleyhaven,Nursing and residential care facilities,45450,menholm rd,V2P1M2,chilliwack,bc,49.1664458,-121.96614440000002
1717,vanmar place,Nursing and residential care facilities,6699,vanmar st,V2R2M1,chilliwack,bc,49.1240739,-121.9439663
1755,waverly seniors village,Nursing and residential care facilities,8445,young rd,V2P4P2,chilliwack,bc,49.155592999999996,-121.95191000000001
1802,wilmada place,Nursing and residential care facilities,46660,cedar st,V2P2H6,chilliwack,bc,49.171290899999995,-121.932773
