index,facility_name,odhf_facility_type,street_no,street_name,postal_code,city,province,latitude,longitude
518,buena vista lodge ltd,Nursing and residential care facilities,15109,buena vista ave,V4B1Y2,white rock,bc,49.0242352,-122.803626
863,good shepherd lodge,Nursing and residential care facilities,14858,prospect ave,V4B2B1,white rock,bc,49.0245841,-122.81050549999999
1298,peace arch district hospital,Hospitals,15521,russell avenue,V4B2R4,white rock,bc,49.029340999999995,-122.792914
1299,peace arch hospital,Hospitals,15521,russell ave,V4B2R4,white rock,bc,49.029968,-122.792231
1300,peace arch hospital - al hogg pavilion,Hospitals,15521,russell avenue,V4B2R4,white rock,bc,49.029322,-122.79213100000001
1642,the terraces at evergreen,Nursing and residential care facilities,1550,oxford st,V4B3R5,white rock,bc,49.029566700000004,-122.8107662
1785,white rock seniors village,Nursing and residential care facilities,15628,buena vista ave,V4B1Z4,white rock,bc,49.0236424,-122.78915020000001
