index,facility_name,odhf_facility_type,street_no,street_name,postal_code,city,province,latitude,longitude
396,amica lions gate,Nursing and residential care facilities,701,keith rd,V7T1M2,west vancouver,bc,49.331385100000006,-123.135713
398,amica west vancouver,Nursing and residential care facilities,659,clyde ave,V7T1C8,west vancouver,bc,49.328571600000004,-123.1332044
545,capilano care centre,Nursing and residential care facilities,525,clyde avenue,V7T1C4,west vancouver,bc,49.329066,-123.13
569,caulfield village medical clinic,Ambulatory health care services,220-5317,headland drive,V7W3C5,west vancouver,bc,49.35045,-123.2545
644,continuum medical care,Ambulatory health care services,201-520,17 street,V7V3S8,west vancouver,bc,49.328644,-123.16017
935,hollyburn house,Nursing and residential care facilities,2095,marine dr,V7V4V5,west vancouver,bc,49.329908200000006,-123.167157
947,inglewood care centre,Nursing and residential care facilities,725,inglewood ave,V7T1X5,west vancouver,bc,49.3354367,-123.1356688
1233,ocean medical,Ambulatory health care services,1884,marine drive,V7V1J6,west vancouver,bc,49.328678000000004,-123.16385600000001
1267,paisley house,Nursing and residential care facilities,3091,paisley rd,V7R1C7,north vancouver,bc,49.336714,-123.198295
1769,west vancouver beachside medical,Ambulatory health care services,1405,bellevue avenue,V7T1C3,west vancouver,bc,49.32737,-123.15454
