index,facility_name,odhf_facility_type,street_no,street_name,postal_code,city,province,latitude,longitude
376,adrian house,Nursing and residential care facilities,948,howard ave,V5B3R6,burnaby,bc,49.2756077,-122.9836654
390,altesse,Nursing and residential care facilities,3762,thurston st,V5H1H7,burnaby,bc,49.2343917,-123.02145549999999
499,brentwood medical clinic,Ambulatory health care services,212-4567,lougheed highway,V5C3Z6,burnaby,bc,49.26859,-123.0008
517,buckingham house,Nursing and residential care facilities,7516,imperial st,V5E1P6,burnaby,bc,49.2268549,-122.95099280000001
523,burnaby hospital,Hospitals,3935,kincaid st,V5G2X6,burnaby,bc,49.24947879999999,-123.0157868
544,canway medical centre,Ambulatory health care services,4695,canada way,V5G1K8,burnaby,bc,49.254121999999995,-122.98946000000001
559,carlton gardens care centre,Nursing and residential care facilities,4108,norfolk st,V5G0B4,burnaby,bc,49.2550436,-123.0128497
562,carson house,Nursing and residential care facilities,5155,carson st,V5J2Z1,burnaby,bc,49.209682799999996,-122.98940559999998
588,charlford house,Nursing and residential care facilities,6845,kitchener st,V5B2J8,burnaby,bc,49.2718494,-122.96239469999999
639,community living society - neville house,Nursing and residential care facilities,5678,neville st,V5J2H9,burnaby,bc,49.2136422,-122.9808733
679,cumberland house,Nursing and residential care facilities,7533,cumberland st,V3N3X6,burnaby,bc,49.2320214,-122.91851159999999
683,dania home,Nursing and residential care facilities,4175,norland ave,V4G3Z6,burnaby,bc,49.247584,-122.975187
688,dawson medical clinic,Ambulatory health care services,4238,dawson street,V5C0B8,burnaby,bc,49.264466999999996,-123.011697
690,deer lake house,Nursing and residential care facilities,6098,sperling ave,V5E2T9,burnaby,bc,49.22851970000001,-122.9643376
721,duthie avenue,Nursing and residential care facilities,1055,duthie ave,V5A2R3,burnaby,bc,49.2748071,-122.9538731
733,eastlawn,Nursing and residential care facilities,1190,eastlawn dr,V5B3H1,burnaby,bc,49.2739211,-122.9903615
739,edmonds house,Nursing and residential care facilities,7731,wedgewood st,V5E2E5,burnaby,bc,49.2252184,-122.94124359999999
746,elicare medical,Ambulatory health care services,9618,cameron street,V3J1M2,burnaby,bc,49.253444,-122.89804
754,emily house,Nursing and residential care facilities,4672,neville st,V5J2H1,burnaby,bc,49.213623600000005,-122.99794729999999
766,fair haven burnaby lodge,Nursing and residential care facilities,7557,sussex ave,V5J3V6,burnaby,bc,49.2152662,-123.0058287
781,finnish manor,Nursing and residential care facilities,3460,kalyk ave,V5G3B2,burnaby,bc,49.25405,-123.01274879999998
796,forglen 5450,Nursing and residential care facilities,5450,forglen dr,V5H3K7,burnaby,bc,49.234934499999994,-122.99260509999999
812,fraserside residence,Nursing and residential care facilities,7738,gilley ave,V5J4Y2,burnaby,bc,49.2134802,-122.9715652
830,george derby centre,Nursing and residential care facilities,7550,cumberland st,V3N3X5,burnaby,bc,49.233602000000005,-122.91648799999999
836,gilley house,Nursing and residential care facilities,8275,gilley ave,V5J4Y8,burnaby,bc,49.2089907,-122.9733811
864,goodlad house,Nursing and residential care facilities,7912,goodlad st,V5E2H9,burnaby,bc,49.229818,-122.94091399999999
878,gray house,Nursing and residential care facilities,6957,gray ave,V5J3Y9,burnaby,bc,49.2206634,-123.00003149999999
898,harmony court care centre,Nursing and residential care facilities,7195,canada way,V5E3R7,burnaby,bc,49.224537,-122.942499
920,highgate medical clinic,Ambulatory health care services,103-7188,kingsway,V5E1G3,burnaby,bc,49.218204,-122.95538400000001
933,holly,Nursing and residential care facilities,7473,holly st,V5E2C3,burnaby,bc,49.22274,-122.947842
958,j-von medical centre,Ambulatory health care services,4468,beresford street,V5H0B8,burnaby,bc,49.225260999999996,-123.00386499999999
992,kensington walk-in and paediatric medical clinic,Ambulatory health care services,6548,hastings street,V5B1S2,burnaby,bc,49.279428,-122.96823899999998
995,kerrywood house,Nursing and residential care facilities,7782,kerrywood cres,V5A2G1,burnaby,bc,49.2484798,-122.9381034
1089,mango medical clinic,Ambulatory health care services,4392,beresford street,V5H0E7,burnaby,bc,49.226057,-123.005725
1147,millers way,Nursing and residential care facilities,7710,15 ave,V3N1W5,burnaby,bc,49.220594,-122.93531599999999
1189,nazirah house,Nursing and residential care facilities,4560,imperial st,V5J1B6,burnaby,bc,49.2215495,-123.00079779999999
1192,nelson avenue,Nursing and residential care facilities,7077,nelson ave,V5J4B9,burnaby,bc,49.2192139,-122.9945662
1196,neville house,Nursing and residential care facilities,5675,neville st,V5J2J1,burnaby,bc,49.2141609,-122.98105919999999
1197,new britton house,Nursing and residential care facilities,7478,britton st,V3N3A5,burnaby,bc,49.216893299999995,-122.9478861
1200,new vista care home i,Nursing and residential care facilities,7550,rosewood st,V5E3Z3,burnaby,bc,49.224288,-122.94565300000001
1217,normanna rest home ii,Nursing and residential care facilities,7725,4 st,V3N5B6,burnaby,bc,49.2221124,-122.92769380000001
1232,oakland,Nursing and residential care facilities,6110,sperling ave,V5E2T9,burnaby,bc,49.228339500000004,-122.9643356
1235,old orchard medical clinic,Ambulatory health care services,924005,kingsway,V5H2A1,burnaby,bc,49.231407,-123.00512900000001
1243,orchard heights,Nursing and residential care facilities,5538,chaffey ave,V5H2S2,burnaby,bc,49.234362700000005,-123.00706840000001
1342,primecare medical centre,Ambulatory health care services,201-7315,edmonds street,V3N1A7,burnaby,bc,49.218846,-122.95161499999999
1376,rainbow lodge,Nursing and residential care facilities,7510,6 st,V3N3M1,burnaby,bc,49.223830299999996,-122.93329080000001
1379,randall house,Nursing and residential care facilities,6610,gilley ave,V5C5T5,burnaby,bc,49.2239136,-122.9716122
1439,rosewood,Nursing and residential care facilities,7916,rosewood st,V5E2H3,burnaby,bc,49.2279271,-122.93796029999999
1471,sardis house,Nursing and residential care facilities,4521,sardis st,V5H1K8,burnaby,bc,49.233943100000005,-123.0029902
