index,facility_name,odhf_facility_type,street_no,street_name,postal_code,city,province,latitude,longitude
397,amica on the gorge,Nursing and residential care facilities,994,gorge rd w,V9A1P2,victoria,bc,48.453413,-123.41963
452,bed & breakfast,Nursing and residential care facilities,910,easter rd,V8X2Z8,victoria,bc,48.460699,-123.36752
461,berwick house,Nursing and residential care facilities,4062,shelbourne st,V8N3E6,victoria,bc,48.475333,-123.33305
464,berwick royal oak,Nursing and residential care facilities,4680,elk lake dr,V8Z5M1,victoria,bc,48.5035189,-123.3868419
487,blenkinsop home,Nursing and residential care facilities,3924,blenkinsop rd,V8P3P5,victoria,bc,48.4659403,-123.3503798
524,burnside family medical clinic,Ambulatory health care services,101,burnside w,V9A1B7,victoria,bc,48.45081,-123.387382
525,burnside home,Nursing and residential care facilities,595,burnside rd w,V8Z1M7,victoria,bc,48.460042,-123.39956000000001
554,carey house,Nursing and residential care facilities,4241,carey rd,V8Z4H1,victoria,bc,48.4825802,-123.4007389
564,cartref,Nursing and residential care facilities,4024,livingstone ave n,V8N5Z5,victoria,bc,48.47379,-123.35158
645,cook and quadra medical clinic,Ambulatory health care services,3461,cook street,V8X1B3,victoria,bc,48.455102000000004,-123.357643
671,"cridge brain injury residence, the",Nursing and residential care facilities,1251,santa rosa ave,V8Z2V5,victoria,bc,48.47524,-123.41436999999999
720,dustin house,Nursing and residential care facilities,4967,dustin crt,V8Y3B5,victoria,bc,48.514907,-123.38556000000001
727,eagle rock heights,Nursing and residential care facilities,972,greenridge cres,V8X3B9,victoria,bc,48.466336,-123.36825
775,feltham,Nursing and residential care facilities,1765,feltham rd,V8N2A4,victoria,bc,48.4758034,-123.3258787
798,forrester house,Nursing and residential care facilities,1998,forrester st,V8R3H1,victoria,bc,48.443712,-123.32226000000001
865,gordon head medical treatment centre,Ambulatory health care services,103-1595,mckenzie avenue,V8N1A4,victoria,bc,48.468573,-123.333124
867,gorge view home,Nursing and residential care facilities,2972,wascana st,V9H1V7,victoria,bc,48.4465292,-123.39234109999998
880,greenlea group home,Nursing and residential care facilities,758,greenlea dr,V8Z3E6,victoria,bc,48.494161,-123.3936
881,greenridge place,Nursing and residential care facilities,970,greenridge cres,V8X3B9,victoria,bc,48.466465,-123.36851999999999
896,happy rock,Nursing and residential care facilities,3034,donald st,V9A1Y2,victoria,bc,48.449087,-123.39385
907,hawthorne,Nursing and residential care facilities,1610,hawthorne st,V8N2M4,victoria,bc,48.487758899999996,-123.33045729999999
967,jersey road home,Nursing and residential care facilities,5191,jersey rd,V8Y2G9,victoria,bc,48.525563,-123.37238
1058,lindsay home,Nursing and residential care facilities,754,lindsay st,V8Z3E1,victoria,bc,48.4911471,-123.39525479999999
1072,lucas home,Nursing and residential care facilities,909,lucas ave,V8X4M7,victoria,bc,48.477996999999995,-123.37393600000001
1073,luther court,Nursing and residential care facilities,1525,cedar hill x rd,V8P5M1,victoria,bc,48.4619202,-123.3364271
1105,mariposa,Nursing and residential care facilities,4133,mariposa heights,V8Z6P5,victoria,bc,48.478199,-123.41418
1148,millgrove home,Nursing and residential care facilities,3028,millgrove st,V9A1X5,victoria,bc,48.448569,-123.39314650000001
1150,mimi's house,Nursing and residential care facilities,1631,earlston ave,V8P2Z6,victoria,bc,48.46396,-123.33049
1151,mina care home,Nursing and residential care facilities,1061,mina ave,V8Z6P8,victoria,bc,48.467003999999996,-123.41148999999999
1171,mount tolmie hospital,Hospitals,3690,richmond rd,V8P4R6,victoria,bc,48.459924,-123.330454
1209,nigel house,Nursing and residential care facilities,846,nigel ave,V8X4E5,victoria,bc,48.4580708,-123.37295049999999
1216,normandy house,Nursing and residential care facilities,575,normandy rd,V8Z3J3,victoria,bc,48.500240999999995,-123.39166999999999
1251,orillia house,Nursing and residential care facilities,2965,orillia st,V9A1Y6,victoria,bc,48.448213700000004,-123.39593329999998
1268,panama house,Nursing and residential care facilities,4148,carey rd,V8Z4G8,victoria,bc,48.477019,-123.39917
1288,parkside house,Nursing and residential care facilities,1740,feltham rd,V8N2A3,victoria,bc,48.476296399999995,-123.32861969999999
1295,paskin home,Nursing and residential care facilities,761,paskin way,V8Z6N4,victoria,bc,48.4935158,-123.39257040000001
1363,queen alexandra centre for children's health,Nursing and residential care facilities,2400,arbutus rd,V8N1V7,victoria,bc,48.471509999999995,-123.29954
1453,royal oak house,Nursing and residential care facilities,780,royal oak ave,V8X3T1,victoria,bc,48.493759600000004,-123.3852606
1460,saanich plaza medical clinic,Ambulatory health care services,3544,blanshard street,V8X1W3,victoria,bc,48.456348,-123.374168
1468,san miguel,Nursing and residential care facilities,1860,san miguel rd,V8N6G8,victoria,bc,48.4799073,-123.31663629999998
1490,shelbourne medical clinic,Ambulatory health care services,150-3200,shelbourne street,V8P5G8,victoria,bc,48.448582,-123.333229
1587,tait street,Nursing and residential care facilities,585,tait st,V8Z2E1,victoria,bc,48.471073600000004,-123.3908108
1628,the heights,Nursing and residential care facilities,1236,mariposa ave,V8Z6P4,victoria,bc,48.477079100000005,-123.41250890000002
1629,the heights at mount view,Nursing and residential care facilities,3814,carey rd,V8Z4C4,victoria,bc,48.459499,-123.38131000000001
1653,tillicum group home,Nursing and residential care facilities,3715,tillicum rd,V8Z4H9,victoria,bc,48.459891,-123.39731
1654,tillicum medical clinic,Ambulatory health care services,14-3170,tillicum road,V9A7C5,victoria,bc,48.45447,-123.3949
1684,twin oaks,Nursing and residential care facilities,1216,royal oak dr,V8X3T8,victoria,bc,48.503458,-123.35781570000002
1686,tyndall home,Nursing and residential care facilities,4482,tyndall ave,V8N3S6,victoria,bc,48.490212,-123.31748999999999
1697,uptown medical clinic,Ambulatory health care services,3460,saanich road,V8X1W7,victoria,bc,48.45517,-123.3744
