index,facility_name,odhf_facility_type,street_no,street_name,postal_code,city,province,latitude,longitude
757,esquimalt medical clinic,Ambulatory health care services,3-1153,esquimalt road,V9A3N7,victoria,bc,48.429952,-123.40993600000002
924,highrock house,Nursing and residential care facilities,943,shearwater st,V9A4V3,victoria,bc,48.433733000000004,-123.40154
1120,mccauley lodge,Nursing and residential care facilities,1037,lyall st,V9A5G1,victoria,bc,48.426921,-123.4064
1579,sunset lodge - salvation army,Nursing and residential care facilities,952,arm st,V9A4G7,victoria,bc,48.4418742,-123.39336709999999
1663,treebank home,Nursing and residential care facilities,1381,treebank rd w,V9A6Y7,victoria,bc,48.449659000000004,-123.41854
