index,facility_name,odhf_facility_type,street_no,street_name,postal_code,city,province,latitude,longitude
368,abbott house,Nursing and residential care facilities,7109,westholme rd,V9L6B4,duncan,bc,48.850301,-123.71503999999999
478,beverly medical clinic,Ambulatory health care services,201-2763,beverly street,V9L6X2,duncan,bc,48.785745,-123.708003
541,campbell street group home,Nursing and residential care facilities,346,campbell st,V9L3H8,duncan,bc,48.783462,-123.70701000000001
582,cerwydden care centre,Nursing and residential care facilities,3243,cowichan lake rd,V9L4B8,duncan,bc,48.790277,-123.73317
595,chemainus health care centre,Hospitals,9909,esplanade st,V0R1K1,chemainus,bc,48.927226,-123.71591299999999
659,cowichan district hospital,Hospitals,3045,gibbins rd,V9L1E5,duncan,bc,48.7850092,-123.72332309999999
691,deertrail cottage,Nursing and residential care facilities,1711,escarpment way,V9L5W7,duncan,bc,48.838219,-123.64988000000001
1035,lakes road home,Nursing and residential care facilities,6284,lakes rd,V9L4S6,duncan,bc,48.798968,-123.69181999999999
1102,marchmont place,Nursing and residential care facilities,6124,ryall rd,V9L2H7,duncan,bc,48.793073,-123.72443
1455,ryall road residence,Nursing and residential care facilities,6124,ryall rd,V9L2H7,duncan,bc,48.793073,-123.72443
1555,stamps house - v.i.t.a.l.,Nursing and residential care facilities,1918,stamps rd,V9L5W1,duncan,bc,48.813819200000005,-123.6628588
1772,westholme road group home,Nursing and residential care facilities,7105,westholme rd,V9L6B4,duncan,bc,48.850249,-123.71543999999999
1787,wicks road group home,Nursing and residential care facilities,6276,wicks rd,V9L5C3,duncan,bc,48.798265,-123.68607
1807,wisteria house group home,Nursing and residential care facilities,5834,upland ave,V9L1L8,duncan,bc,48.782618,-123.73071999999999
