index,facility_name,odhf_facility_type,street_no,street_name,postal_code,city,province,latitude,longitude
641,comox valley medical clinic,Ambulatory health care services,3199,cliffe avenue,V9N2L9,courtenay,bc,49.667209,-124.981057
642,comox valley seniors village,Nursing and residential care facilities,4640,headquarters rd,V9N7J3,courtenay,bc,49.702595,-124.99338999999999
680,cummings home,Nursing and residential care facilities,1926,cummings rd,V9N9G6,courtenay,bc,49.6903919,-124.9536777
823,gatehouse,Nursing and residential care facilities,2847,gatehouse pl,V9N8S1,courtenay,bc,49.7129894,-124.98625190000001
839,glacier view lodge,Nursing and residential care facilities,2450,back rd,V9N9G8,courtenay,bc,49.690363,-124.96433999999999
1087,malaspina residence,Nursing and residential care facilities,2028,cedar cres,V9N3B6,courtenay,bc,49.678687700000005,-124.9927014
1125,mcqueen house,Nursing and residential care facilities,2831,muir rd,V9N6A2,courtenay,bc,49.7107401,-124.9852203
1219,north island hospital comox valley,Hospitals,101,lerwick road,V9N0B9,courtenay,bc,49.713417,-124.97038400000001
1516,sixth street residence,Nursing and residential care facilities,743,6 st,V9N1M8,courtenay,bc,49.6877334,-125.00504140000001
1649,thorpe rd. house (v.i.t.a.l.),Nursing and residential care facilities,1213,thorpe rd,V9N7K7,courtenay,bc,49.700739,-124.97726999999999
1752,washington park medical clinic,Ambulatory health care services,757,ryan road,V9N3R6,courtenay,bc,49.69744,-124.9863
