index,facility_name,odhf_facility_type,street_no,street_name,postal_code,city,province,latitude,longitude
586,chapman house,Nursing and residential care facilities,4491,sunshine coast highway,V0N3A1,sechelt,bc,49.440467,-123.71799999999999
1130,medusa street residence,Nursing and residential care facilities,5832,medusa street,V0N3A3,sechelt,bc,49.4749989,-123.76509709999999
1435,rosecliffe residence,Nursing and residential care facilities,5527,shorncliffe ave,V0N3A7,sechelt,bc,49.472898799999996,-123.76496429999999
1477,sechelt hospital,Hospitals,5544,sunshine coast highway,V0N3A0,sechelt,bc,49.475307,-123.749159
1495,shorncliffe,Nursing and residential care facilities,5847,medusa street,V0N3A3,sechelt,bc,49.474191,-123.765
1660,totem lodge,Nursing and residential care facilities,5544,sunshine coast highway,V0N3A0,sechelt,bc,49.47472,-123.758
1680,turnstone,Nursing and residential care facilities,5910,turnstone crescent,V0N3A6,sechelt,bc,49.482772,-123.768248
