index,facility_name,odhf_facility_type,street_no,street_name,postal_code,city,province,latitude,longitude
341,17th street home,Nursing and residential care facilities,4200,17 st,V1T8R7,vernon,bc,50.273778,-119.255517
350,35th avenue home,Nursing and residential care facilities,902,35 ave,V1T2R3,vernon,bc,50.266467600000006,-119.24342720000001
663,creekside landing,Nursing and residential care facilities,6190,okanagan landing rd,V1H1M3,vernon,bc,50.2465633,-119.3223493
703,dobie house,Nursing and residential care facilities,3307,26 st,V1T4V2,vernon,bc,50.2665627,-119.26515159999998
711,down's residence,Nursing and residential care facilities,1304,43 avenue,V1T8B2,vernon,bc,50.2746532,-119.2497058
860,good samaritan canada heron grove,Nursing and residential care facilities,4900,20 st,V1T9W3,vernon,bc,50.2830685,-119.25913899999999
906,hawthorn house,Nursing and residential care facilities,4217,16 ave,V1T6P2,vernon,bc,50.2529045,-119.3020415
914,hearthstone manor,Nursing and residential care facilities,2800,40 st,V1T6J7,vernon,bc,50.2622598,-119.2899179
918,heritage square,Nursing and residential care facilities,3904,27 st,V1T4X7,vernon,bc,50.270687,-119.26823
976,juniper place group home,Nursing and residential care facilities,3508,42 ave,V1T3J9,vernon,bc,50.272938200000006,-119.28011540000001
1004,kingfisher place,Nursing and residential care facilities,4328,crystal drive,V1T8V5,vernon,bc,50.2761527,-119.2445371
1180,mulberry place,Nursing and residential care facilities,2803,39 st,V1T6J3,vernon,bc,50.2628808,-119.28692279999999
1215,noric house,Nursing and residential care facilities,1400,mission rd,V1T9C3,vernon,bc,50.251193,-119.282587
1221,north okanagan hospice house,Nursing and residential care facilities,3506,27 ave,V1T1S4,vernon,bc,50.261721,-119.28179399999999
1222,north okanagan medical clinic,Ambulatory health care services,5001,anderson way,V1T9V1,vernon,bc,50.284420000000004,-119.2721
1561,sterling centre clinic,Ambulatory health care services,101-3210,25 avenue,V1T1P1,vernon,bc,50.260402,-119.27511299999999
1617,the gateby,Nursing and residential care facilities,3000,gateby pl,V1T8V8,vernon,bc,50.264235299999996,-119.28130149999998
1626,the hamlets at vernon,Nursing and residential care facilities,3050,29 ave,V1T9Y9,vernon,bc,50.2628516,-119.2714963
1724,vernon jubilee hospital,Hospitals,2101,s 32 st,V1T5L2,vernon,bc,50.255646399999996,-119.270432
1797,willow house,Nursing and residential care facilities,1812,22 st,V1T7G2,vernon,bc,50.255446500000005,-119.2599452
1801,willowview,Nursing and residential care facilities,1808,30 st,V1T5C5,vernon,bc,50.255026799999996,-119.2705047
