index,facility_name,odhf_facility_type,street_no,street_name,postal_code,city,province,latitude,longitude
480,birch lodge,Nursing and residential care facilities,7446,highway 6,V1B3H4,coldstream,bc,50.2203239,-119.14936540000001
953,irecover okanagan,Nursing and residential care facilities,9816,school rd,V1B3C7,coldstream,bc,50.23316629999999,-119.1081637
1039,lamton home,Nursing and residential care facilities,650,middleton way,V1B2V5,coldstream,bc,50.2318418,-119.2547159
1141,middleton house,Nursing and residential care facilities,10306,middleton dr,V1T2K6,vernon,bc,50.236328,-119.237596
1173,mountain view,Nursing and residential care facilities,470,middleton way,V1B3Z7,vernon,bc,50.2325339,-119.24244479999999
